 {"shops":[{"id":1,"name":"Abraxas Coffeeshop","url_name":"\/nl\/in\/amsterdam\/abraxas-coffeeshop","lat":52.372059,"lng":4.891242,"street":"Jonge Roelensteeg","number":"12-14","zipcode":"1012 PL","city":"Amsterdam","phone_number":"+31 20 625 5763","rating":4.6},{"id":2,"name":"Original Dampkring","url_name":"\/nl\/in\/amsterdam\/original-dampkring","lat":52.367752,"lng":4.890496,"street":"Handboogstraat","number":"29","zipcode":"1012 XM","city":"Amsterdam","phone_number":"+31 20 638 0705","rating":4.5},{"id":3,"name":"Grey Area Coffeeshop","url_name":"\/nl\/in\/amsterdam\/grey-area-coffeeshop","lat":52.374664,"lng":4.888843,"street":"Oude Leliestraat","number":"2","zipcode":"1015 AW","city":"Amsterdam","phone_number":"+31 20 420 4301","rating":4.6},{"id":4,"name":"Green House Centrum","url_name":"\/nl\/in\/amsterdam\/green-house-centrum","lat":52.37149,"lng":4.895739,"street":"Oudezijds Voorburgwal","number":"191","zipcode":"1012 EW","city":"Amsterdam","phone_number":"+31 20 627 1739","rating":4.5},{"id":5,"name":"The Bulldog","url_name":"\/nl\/in\/amsterdam\/the-bulldog","lat":52.373672,"lng":4.897719,"street":"Oudezijds Voorburgwal","number":"90","zipcode":"1012 GG","city":"Amsterdam","phone_number":"+31 20 625 9864","rating":4.4},{"id":6,"name":"Bluebird","url_name":"\/nl\/in\/amsterdam\/bluebird","lat":52.369987,"lng":4.900887,"street":"Sint Antoniesbreestraat","number":"71","zipcode":"1011 HB","city":"Amsterdam","phone_number":"+31 20 622 5232","rating":4.5},{"id":7,"name":"Easy Times Coffeeshop","url_name":"\/nl\/in\/amsterdam\/easy-times-coffeeshop","lat":52.3643,"lng":4.884945,"street":"Prinsengracht","number":"476","zipcode":"1017 KG","city":"Amsterdam","phone_number":"+31 20 626 5709","rating":4.5},{"id":8,"name":"The Rookies Coffeeshop","url_name":"\/nl\/in\/amsterdam\/the-rookies-coffeeshop","lat":52.362984,"lng":4.885309,"street":"Korte Leidsedwarsstraat","number":"145-147","zipcode":"1017 PZ","city":"Amsterdam","phone_number":"","rating":4.6},{"id":9,"name":"Paradox","url_name":"\/nl\/in\/amsterdam\/paradox","lat":52.374611,"lng":4.881186,"street":"Eerste Bloemdwarsstraat","number":"2R","zipcode":"1016 KS","city":"Amsterdam","phone_number":"+31 20 623 5639","rating":4.6},{"id":10,"name":"Coffeeshop Rusland","url_name":"\/nl\/in\/amsterdam\/coffeeshop-rusland","lat":52.370052,"lng":4.896298,"street":"Rusland","number":"16","zipcode":"1012 CL","city":"Amsterdam","phone_number":"+31 20 845 6434","rating":4.3},{"id":13,"name":"Dizzy Duck","url_name":"\/nl\/in\/den-haag\/dizzy-duck","lat":52.083782,"lng":4.299007,"street":"Trompstraat","number":"210","zipcode":"2518 BR","city":"Den Haag","phone_number":"+31 70 346 7137","rating":4.7},{"id":14,"name":"Coffeeshop The Stud","url_name":"\/nl\/in\/amsterdam\/coffeeshop-the-stud","lat":52.358799,"lng":4.94101,"street":"Molukkenstraat","number":"581","zipcode":"1095 BJ","city":"Amsterdam","phone_number":"+31 20 694 0983","rating":4.7},{"id":15,"name":"Tweede Kamer Coffeeshop","url_name":"\/nl\/in\/amsterdam\/tweede-kamer-coffeeshop","lat":52.368858,"lng":4.888398,"street":"Heisteeg","number":"6","zipcode":"1012 WC","city":"Amsterdam","phone_number":"+31 20 422 2236","rating":4.6},{"id":16,"name":"Coffeeshop Crush","url_name":"\/nl\/in\/amsterdam\/coffeeshop-crush","lat":52.365768,"lng":4.880106,"street":"Marnixstraat","number":"383","zipcode":"1016 XR","city":"Amsterdam","phone_number":"+31 20 420 4435","rating":4.3},{"id":17,"name":"420CAFE","url_name":"\/nl\/in\/amsterdam\/420cafe","lat":52.368752,"lng":4.88827,"street":"Singel","number":"387","zipcode":"1012 WN","city":"Amsterdam","phone_number":"","rating":4.4},{"id":18,"name":"Coffeeshop Club Media","url_name":"\/nl\/in\/amsterdam\/coffeeshop-club-media","lat":52.355816,"lng":4.891916,"street":"Gerard Doustraat","number":"85","zipcode":"1072 VN","city":"Amsterdam","phone_number":"+31 20 774 8588","rating":4.5},{"id":22,"name":"Culture Boat | Coffeeshop & Seed Shop","url_name":"\/nl\/in\/utrecht\/culture-boat-coffeeshop-seed-shop","lat":52.096954,"lng":5.126756,"street":"Wittevrouwensingel","number":"206","zipcode":"3572 CE","city":"Utrecht","phone_number":"+31 30 205 9965","rating":4.6},{"id":23,"name":"Babylon Coffeeshop","url_name":"\/nl\/in\/amsterdam\/babylon-coffeeshop","lat":52.374744,"lng":4.896609,"street":"Beursstraat","number":"27a","zipcode":"1012 JV","city":"Amsterdam","phone_number":"+31 6 42359358","rating":3.9},{"id":24,"name":"Green Place","url_name":"\/nl\/in\/amsterdam\/green-place","lat":52.372108,"lng":4.89931,"street":"Kloveniersburgwal","number":"4","zipcode":"1012 CT","city":"Amsterdam","phone_number":"","rating":4.3},{"id":26,"name":"Coffeeshop The Otherside","url_name":"\/nl\/in\/amsterdam\/coffeeshop-the-otherside","lat":52.366787,"lng":4.889228,"street":"Reguliersdwarsstraat","number":"6","zipcode":"1017 BM","city":"Amsterdam","phone_number":"+31 20 421 1014","rating":4},{"id":27,"name":"Coffeeshop Het Ballonnetje","url_name":"\/nl\/in\/amsterdam\/coffeeshop-het-ballonnetje","lat":52.363461,"lng":4.910513,"street":"Roetersstraat","number":"12","zipcode":"1018 WD","city":"Amsterdam","phone_number":"+31 20 205 0414","rating":4.6},{"id":28,"name":"'t Grasje","url_name":"\/nl\/in\/utrecht\/t-grasje","lat":52.095528,"lng":5.129416,"street":"Obrechtstraat","number":"1","zipcode":"3572 EA","city":"Utrecht","phone_number":"+31 30 273 3842","rating":4.5},{"id":29,"name":"Coffeeshop La Tertulia","url_name":"\/nl\/in\/amsterdam\/coffeeshop-la-tertulia","lat":52.369476,"lng":4.882285,"street":"Prinsengracht","number":"312","zipcode":"1016 HX","city":"Amsterdam","phone_number":"+31 6 44437840","rating":4.5},{"id":30,"name":"Coffeeshop Johnny","url_name":"\/nl\/in\/amsterdam\/coffeeshop-johnny","lat":52.369938,"lng":4.882089,"street":"Elandsgracht","number":"3","zipcode":"1016 TM","city":"Amsterdam","phone_number":"+31 20 638 3984","rating":4.5},{"id":31,"name":"Coffeeshop Carmona","url_name":"\/nl\/in\/amsterdam\/coffeeshop-carmona","lat":52.355686,"lng":4.901083,"street":"Tweede Jan van der Heijdenstraat","number":"43","zipcode":"1074 XN","city":"Amsterdam","phone_number":"+31 20 400 4026","rating":4.4},{"id":32,"name":"Toermalijn","url_name":"\/nl\/in\/tilburg\/toermalijn","lat":51.562981,"lng":5.090751,"street":"Besterdring","number":"187","zipcode":"5014 HK","city":"Tilburg","phone_number":"+31 13 535 7536","rating":4.6},{"id":33,"name":"Coffeeshop Andersom","url_name":"\/nl\/in\/utrecht\/coffeeshop-andersom","lat":52.090538,"lng":5.120557,"street":"Vismarkt","number":"23","zipcode":"3511 KS","city":"Utrecht","phone_number":"+31 30 232 8665","rating":4},{"id":34,"name":"THE DOLPHINS COFFEESHOP","url_name":"\/nl\/in\/amsterdam\/the-dolphins-coffeeshop","lat":52.365639,"lng":4.885282,"street":"Kerkstraat","number":"39","zipcode":"1017 GB","city":"Amsterdam","phone_number":"+31 20 774 3336","rating":4.7},{"id":35,"name":"Coffeeshop 't Centrum","url_name":"\/nl\/in\/rotterdam\/coffeeshop-t-centrum","lat":51.918758,"lng":4.472908,"street":"Van Oldenbarneveltstraat","number":"154-B","zipcode":"3012 GX","city":"Rotterdam","phone_number":"+31 10 213 3609","rating":3.9},{"id":36,"name":"coffeeshop de Mazzelaar","url_name":"\/nl\/in\/den-haag\/coffeeshop-de-mazzelaar","lat":52.081478,"lng":4.295816,"street":"Zoutmanstraat","number":"29","zipcode":"2518 GL","city":"Den Haag","phone_number":"+31 70 427 6526","rating":4.4},{"id":37,"name":"Coffeeshop Freak","url_name":"\/nl\/in\/utrecht\/coffeeshop-freak","lat":52.095276,"lng":5.121363,"street":"Breedstraat","number":"55","zipcode":"3512 TV","city":"Utrecht","phone_number":"+31 30 232 8021","rating":3.9},{"id":38,"name":"Coffeeshop DNA","url_name":"\/nl\/in\/amsterdam\/coffeeshop-dna","lat":52.345009,"lng":4.864189,"street":"Achillesstraat","number":"104","zipcode":"1076 JK","city":"Amsterdam","phone_number":"+31 20 664 8279","rating":4.6},{"id":39,"name":"Coffeeshop Pleasure","url_name":"\/nl\/in\/utrecht\/coffeeshop-pleasure","lat":52.095058,"lng":5.122706,"street":"Voorstraat","number":"81","zipcode":"3512 AL","city":"Utrecht","phone_number":"+31 30 230 2080","rating":3.9},{"id":40,"name":"De Supermarkt","url_name":"\/nl\/in\/amsterdam\/de-supermarkt","lat":52.375786,"lng":4.873755,"street":"Frederik Hendrikstraat","number":"69HS","zipcode":"1052 HL","city":"Amsterdam","phone_number":"+31 20 486 2497","rating":4.7},{"id":42,"name":"Coffeeshop IBIZA","url_name":"\/nl\/in\/amsterdam\/coffeeshop-ibiza","lat":52.357449,"lng":4.902072,"street":"Hemonystraat","number":"16","zipcode":"1074 BP","city":"Amsterdam","phone_number":"+31 20 223 2534","rating":4.3},{"id":43,"name":"Rock-It Coffeeshop","url_name":"\/nl\/in\/amsterdam\/rock-it-coffeeshop","lat":52.372875,"lng":4.899848,"street":"Nieuwmarkt","number":"12","zipcode":"1012 CR","city":"Amsterdam","phone_number":"","rating":3.6},{"id":44,"name":"Coffeeshop The 4 Floors","url_name":"\/nl\/in\/rotterdam\/coffeeshop-the-4-floors","lat":51.915279,"lng":4.475077,"street":"Eendrachtsweg","number":"29a","zipcode":"3012 LB","city":"Rotterdam","phone_number":"+31 10 412 2007","rating":4},{"id":45,"name":"Hunter's Coffeeshop","url_name":"\/nl\/in\/zandvoort\/coffeeshop-key-west-ii","lat":52.374832,"lng":4.529521,"street":"Stationsstraat","number":"9-11","zipcode":"2042 LD","city":"Zandvoort","phone_number":"+31 23 573 0861","rating":4.5},{"id":46,"name":"Coffeeshop Sky High","url_name":"\/nl\/in\/rotterdam\/coffeeshop-sky-high-1","lat":51.916519,"lng":4.469949,"street":"Nieuwe Binnenweg","number":"59-B","zipcode":"3014 GD","city":"Rotterdam","phone_number":"+31 10 436 6523","rating":4},{"id":47,"name":"The Game","url_name":"\/nl\/in\/den-haag\/the-game","lat":52.077419,"lng":4.308624,"street":"Nieuwstraat","number":"4","zipcode":"2511 AV","city":"Den Haag","phone_number":"+31 70 214 6414","rating":4.8},{"id":50,"name":"Coffeeshop The old church","url_name":"\/nl\/in\/amsterdam\/coffeeshop-the-old-church","lat":52.366966,"lng":4.894141,"street":"Amstel","number":"8","zipcode":"1017 AA","city":"Amsterdam","phone_number":"+31 20 370 7547","rating":4.4},{"id":51,"name":"Coffeeshop Super Skunk","url_name":"\/nl\/in\/amsterdam\/coffeeshop-super-skunk","lat":52.36425,"lng":4.885155,"street":"Prinsengracht","number":"480","zipcode":"1017 KG","city":"Amsterdam","phone_number":"","rating":4.4},{"id":52,"name":"Goa B.V.","url_name":"\/nl\/in\/amsterdam\/goa-bv","lat":52.371243,"lng":4.898614,"street":"Kloveniersburgwal","number":"42","zipcode":"1012 CW","city":"Amsterdam","phone_number":"+31 20 330 9722","rating":4.3},{"id":54,"name":"Coffeeshop Mikmak","url_name":"\/nl\/in\/schiedam\/coffeeshop-mikmak","lat":51.914825,"lng":4.400807,"street":"Broersveld","number":"3","zipcode":"3111 LC","city":"Schiedam","phone_number":"+31 10 473 1861","rating":4},{"id":55,"name":"Smokey","url_name":"\/nl\/in\/amsterdam\/smokey","lat":52.365654,"lng":4.896424,"street":"Rembrandtplein","number":"24","zipcode":"1017 CV","city":"Amsterdam","phone_number":"+31 20 623 7244","rating":4.2},{"id":56,"name":"De Wietstok","url_name":"\/nl\/in\/utrecht\/de-wietstok","lat":52.094913,"lng":5.125497,"street":"Wittevrouwenstraat","number":"21","zipcode":"3512 CS","city":"Utrecht","phone_number":"+31 30 231 4423","rating":4},{"id":57,"name":"Kadinsky","url_name":"\/nl\/in\/amsterdam\/kadinsky","lat":52.370338,"lng":4.889384,"street":"Rosmarijnsteeg","number":"9","zipcode":"1012 RP","city":"Amsterdam","phone_number":"+31 20 624 7023","rating":4.3},{"id":58,"name":"Cremers","url_name":"\/nl\/in\/den-haag\/cremers","lat":52.079193,"lng":4.304904,"street":"Prinsestraat","number":"84","zipcode":"2513 BM","city":"Den Haag","phone_number":"+31 70 346 2346","rating":4.6},{"id":59,"name":"Coffeeshop Miami Rotterdam","url_name":"\/nl\/in\/rotterdam\/coffeeshop-miami-rotterdam","lat":51.910652,"lng":4.454528,"street":"Schonebergerweg","number":"35","zipcode":"3023 ZG","city":"Rotterdam","phone_number":"+31 10 477 1766","rating":4.3},{"id":60,"name":"Coffeeshop Papillon","url_name":"\/nl\/in\/amsterdam\/coffeeshop-papillon","lat":52.351665,"lng":4.894444,"street":"Van der Helstplein","number":"8h","zipcode":"1072 PH","city":"Amsterdam","phone_number":"+31 6 86370077","rating":4.5},{"id":61,"name":"Coffeeshop Witte de With","url_name":"\/nl\/in\/rotterdam\/coffeeshop-witte-de-with","lat":51.915142,"lng":4.475618,"street":"Witte de Withstraat","number":"92","zipcode":"3012 BT","city":"Rotterdam","phone_number":"+31 10 233 1525","rating":3.7},{"id":62,"name":"Kadinsky Coffeeshop","url_name":"\/nl\/in\/amsterdam\/kadinsky-coffeeshop","lat":52.374226,"lng":4.893472,"street":"Zoutsteeg","number":"14","zipcode":"1012 LX","city":"Amsterdam","phone_number":"+31 20 620 4715","rating":4.4},{"id":63,"name":"Greenhouse III","url_name":"\/nl\/in\/den-haag\/greenhouse-iii","lat":52.082016,"lng":4.300498,"street":"Elandstraat","number":"18","zipcode":"2513 GR","city":"Den Haag","phone_number":"+31 70 362 3968","rating":4.7},{"id":64,"name":"Coffeeshop Blue & White","url_name":"\/nl\/in\/den-haag\/coffeeshop-blue-white","lat":52.111748,"lng":4.288797,"street":"Bosschestraat","number":"63","zipcode":"2587 HC","city":"Den Haag","phone_number":"+31 70 352 2425","rating":4.3},{"id":65,"name":"Coffeeshop Waterworld","url_name":"\/nl\/in\/den-haag\/coffeeshop-waterworld","lat":52.074802,"lng":4.310908,"street":"Gedempte Burgwal","number":"55","zipcode":"2512 BS","city":"Den Haag","phone_number":"+31 70 889 0236","rating":4.1},{"id":66,"name":"Coffeeshop Hortus De overkant V.O.F.","url_name":"\/nl\/in\/amsterdam\/coffeeshop-hortus-de-overkant-vof","lat":52.367306,"lng":4.906526,"street":"Nieuwe Herengracht","number":"71","zipcode":"1011 RC","city":"Amsterdam","phone_number":"+31 20 000 0000","rating":4.7},{"id":67,"name":"Coffeeshop Purple","url_name":"\/nl\/in\/vlissingen\/coffeeshop-purple","lat":51.445637,"lng":3.572444,"street":"Aagje Dekenstraat","number":"7a","zipcode":"4381 RM","city":"Vlissingen","phone_number":"+31 118 430 678","rating":4.1},{"id":68,"name":"Coffeeshop Aarden","url_name":"\/nl\/in\/goes\/coffeeshop-aarden","lat":51.504536,"lng":3.889853,"street":"Grote Markt","number":"7","zipcode":"4461 AH","city":"Goes","phone_number":"+31 113 226 661","rating":4},{"id":69,"name":"Highlife Caf\u00e9","url_name":"\/nl\/in\/goes\/highlife-caf","lat":51.502098,"lng":3.888628,"street":"Wijngaardstraat","number":"60-62","zipcode":"4461 DD","city":"Goes","phone_number":"+31 113 232 255","rating":3.9},{"id":70,"name":"coffeeshop MIAMI","url_name":"\/nl\/in\/terneuzen\/coffeeshop-miami-1","lat":51.338444,"lng":3.822281,"street":"Westkolkstraat","number":"30-32","zipcode":"4531 AX","city":"Terneuzen","phone_number":"+31 6 13741229","rating":2.7},{"id":71,"name":"Coffeeshop Quasi B.V.","url_name":"\/nl\/in\/maassluis\/coffeeshop-quasi-bv","lat":51.920399,"lng":4.24684,"street":"Mackayplein","number":"9","zipcode":"3144 CK","city":"Maassluis","phone_number":"+31 10 591 0773","rating":4.3},{"id":73,"name":"De storm","url_name":"\/nl\/in\/hoek-van-holland\/de-storm","lat":51.976852,"lng":4.131634,"street":"Prins Hendrikstraat","number":"217A","zipcode":"3151 AH","city":"Hoek van Holland","phone_number":"+31 174 310 245","rating":4.4},{"id":75,"name":"Popeye CoffeeShop","url_name":"\/nl\/in\/amsterdam\/popeye-coffeeshop","lat":52.379955,"lng":4.892789,"street":"Haarlemmerstraat","number":"63","zipcode":"1013 EK","city":"Amsterdam","phone_number":"+31 20 623 0829","rating":4.3},{"id":77,"name":"Coffeeshop 137","url_name":"\/nl\/in\/amsterdam\/coffeeshop-137","lat":52.381409,"lng":4.886267,"street":"Brouwersgracht","number":"137","zipcode":"1015 GE","city":"Amsterdam","phone_number":"","rating":4.6},{"id":78,"name":"Coffeeshop Siberi\u00eb","url_name":"\/nl\/in\/amsterdam\/coffeeshop-siberi","lat":52.378899,"lng":4.89298,"street":"Brouwersgracht","number":"11","zipcode":"1015 GA","city":"Amsterdam","phone_number":"+31 20 623 5909","rating":4.7},{"id":79,"name":"Coffeeshop Amsterdam","url_name":"\/nl\/in\/amsterdam\/coffeeshop-amsterdam","lat":52.38007,"lng":4.89287,"street":"Haarlemmerstraat","number":"44","zipcode":"1013 ES","city":"Amsterdam","phone_number":"+31 20 427 6739","rating":4.5},{"id":80,"name":"Coffeeshop De Republiek","url_name":"\/nl\/in\/amsterdam\/coffeeshop-de-republiek","lat":52.382153,"lng":4.878624,"street":"Tweede Nassaustraat","number":"1B","zipcode":"1052 BJ","city":"Amsterdam","phone_number":"+31 20 682 8431","rating":4.6},{"id":81,"name":"'t Keteltje Coffeeshop","url_name":"\/nl\/in\/amsterdam\/t-keteltje-coffeeshop","lat":52.379642,"lng":4.879625,"street":"Marnixstraat","number":"74","zipcode":"1015 VX","city":"Amsterdam","phone_number":"+31 20 622 6998","rating":4.3},{"id":83,"name":"Coffeeshop Empire","url_name":"\/nl\/in\/haarlem\/coffeeshop-empire","lat":52.382927,"lng":4.634726,"street":"Krocht","number":"8","zipcode":"2011 PT","city":"Haarlem","phone_number":"+31 23 531 4453","rating":4.4},{"id":84,"name":"Coffeeshop The Squad","url_name":"\/nl\/in\/zaandam\/coffeeshop-the-squad","lat":52.444813,"lng":4.818672,"street":"Parkstraat","number":"8","zipcode":"1506 WD","city":"Zaandam","phone_number":"+31 75 616 8989","rating":4.4},{"id":85,"name":"Hotel Coffeeshop Voyagers","url_name":"\/nl\/in\/amsterdam\/hotel-coffeeshop-voyagers","lat":52.376358,"lng":4.902024,"street":"Geldersekade","number":"2","zipcode":"1012 BH","city":"Amsterdam","phone_number":"+31 20 624 6871","rating":4.4},{"id":88,"name":"Amnesia","url_name":"\/nl\/in\/amsterdam\/amnesia","lat":52.375542,"lng":4.889083,"street":"Herengracht","number":"133","zipcode":"1015 BG","city":"Amsterdam","phone_number":"+31 20 427 7874","rating":4.5},{"id":89,"name":"Coffeeshop The Spirit","url_name":"\/nl\/in\/amsterdam\/coffeeshop-the-spirit","lat":52.378193,"lng":4.882939,"street":"Westerstraat","number":"121","zipcode":"1015 LZ","city":"Amsterdam","phone_number":"+31 20 625 4650","rating":4.7},{"id":90,"name":"Coffeeshop Pink","url_name":"\/nl\/in\/eindhoven\/coffeeshop-pink","lat":51.438244,"lng":5.472747,"street":"Willemstraat","number":"35","zipcode":"5611 HB","city":"Eindhoven","phone_number":"+31 40 243 1888","rating":4.4},{"id":91,"name":"New Wave","url_name":"\/nl\/in\/eindhoven\/new-wave","lat":51.432899,"lng":5.485036,"street":"Stratumsedijk","number":"35","zipcode":"5611 NB","city":"Eindhoven","phone_number":"+31 40 213 4500","rating":4.1},{"id":92,"name":"Coffeeshop Bellamy","url_name":"\/nl\/in\/rotterdam\/coffeeshop-bellamy","lat":51.918961,"lng":4.463743,"street":"1e Middellandstraat","number":"62","zipcode":"3014 BG","city":"Rotterdam","phone_number":"","rating":4.3},{"id":93,"name":"Coffeeshop Pluto","url_name":"\/nl\/in\/rotterdam\/coffeeshop-pluto","lat":51.916027,"lng":4.46917,"street":"Nieuwe Binnenweg","number":"54","zipcode":"3015 BB","city":"Rotterdam","phone_number":"+31 10 436 6768","rating":4.2},{"id":94,"name":"Coffeeshop Cool","url_name":"\/nl\/in\/eindhoven\/coffeeshop-cool","lat":51.457195,"lng":5.460056,"street":"Barrierweg","number":"229","zipcode":"5622 CN","city":"Eindhoven","phone_number":"+31 40 243 2301","rating":4.2},{"id":95,"name":"Coffeeshop High Times","url_name":"\/nl\/in\/eindhoven\/coffeeshop-high-times","lat":51.42297,"lng":5.492615,"street":"Roostenlaan","number":"24a","zipcode":"5644 PR","city":"Eindhoven","phone_number":"+31 40 212 1971","rating":4.4},{"id":96,"name":"Coffeeshop Euro-Garden","url_name":"\/nl\/in\/eindhoven\/coffeeshop-euro-garden","lat":51.434078,"lng":5.4881,"street":"Stuiverstraat","number":"146","zipcode":"5611 TC","city":"Eindhoven","phone_number":"+31 40 212 7223","rating":4.3},{"id":97,"name":"Coffeeshop Trefpunt Rotterdam","url_name":"\/nl\/in\/rotterdam\/coffeeshop-trefpunt-rotterdam","lat":51.923561,"lng":4.485753,"street":"Botersloot","number":"7","zipcode":"3011 HE","city":"Rotterdam","phone_number":"+31 10 555 5999","rating":4.4},{"id":99,"name":"Coffeeshop 't Geeltje","url_name":"\/nl\/in\/rotterdam\/coffeeshop-t-geeltje","lat":51.913925,"lng":4.460042,"street":"Claes de Vrieselaan","number":"92A","zipcode":"3021 JT","city":"Rotterdam","phone_number":"+31 10 226 3458","rating":4.3},{"id":100,"name":"Coffeeshop The Reef","url_name":"\/nl\/in\/rotterdam\/coffeeshop-the-reef","lat":51.922787,"lng":4.483003,"street":"Oppert","number":"1","zipcode":"3011 HS","city":"Rotterdam","phone_number":"+31 10 213 1612","rating":4.2},{"id":101,"name":"Coffeeshop Colosseum","url_name":"\/nl\/in\/rotterdam\/coffeeshop-colosseum","lat":51.897793,"lng":4.510308,"street":"Slaghekstraat","number":"77B","zipcode":"3074 LB","city":"Rotterdam","phone_number":"+31 10 485 0053","rating":3.8},{"id":102,"name":"Coffeeshop The Bull","url_name":"\/nl\/in\/vlaardingen\/coffeeshop-the-bull","lat":51.90427,"lng":4.352102,"street":"Koningin Wilhelminahaven Noordzijde","number":"11 B","zipcode":"3134 KE","city":"Vlaardingen","phone_number":"+31 10 435 5635","rating":4.5},{"id":103,"name":"Pax","url_name":"\/nl\/in\/breda\/pax","lat":51.590576,"lng":4.766052,"street":"Nijverheidssingel","number":"8","zipcode":"4811 VS","city":"Breda","phone_number":"+31 76 521 3239","rating":4.5},{"id":104,"name":"Coffeeshop Meetpoint","url_name":"\/nl\/in\/s-hertogenbosch\/coffeeshop-meetpoint","lat":51.688667,"lng":5.310014,"street":"Hinthamerstraat","number":"104","zipcode":"5211 MT","city":"'s-Hertogenbosch","phone_number":"+31 73 612 4584","rating":4.6},{"id":105,"name":"Catweazle","url_name":"\/nl\/in\/tiel\/catweazle","lat":51.881603,"lng":5.431177,"street":"Hertog Karellaan","number":"23","zipcode":"4001 KL","city":"Tiel","phone_number":"+31 344 683 194","rating":4.6},{"id":107,"name":"Coffeeshop Casa Blanca","url_name":"\/nl\/in\/eindhoven\/coffeeshop-casa-blanca","lat":51.439777,"lng":5.467744,"street":"Sint Antoniusstraat","number":"1","zipcode":"5616 RT","city":"Eindhoven","phone_number":"+31 6 84743914","rating":4.1},{"id":108,"name":"Coffeeshop The Buddha","url_name":"\/nl\/in\/delft\/coffeeshop-the-buddha","lat":52.006386,"lng":4.361579,"street":"Achterom","number":"19-A","zipcode":"2611 PL","city":"Delft","phone_number":"+31 15 214 5936","rating":4.5},{"id":109,"name":"Coffeeshop Paradise","url_name":"\/nl\/in\/breda\/coffeeshop-paradise","lat":51.58868,"lng":4.778114,"street":"Sint Annastraat","number":"3","zipcode":"4811 XK","city":"Breda","phone_number":"+31 76 514 1417","rating":4},{"id":110,"name":"De Baron","url_name":"\/nl\/in\/breda\/de-baron","lat":51.591518,"lng":4.784673,"street":"Boschstraat","number":"127","zipcode":"4811 GG","city":"Breda","phone_number":"+31 76 520 0022","rating":3.9},{"id":111,"name":"Vof. 'The Wall'","url_name":"\/nl\/in\/eindhoven\/vof-the-wall","lat":51.451412,"lng":5.463402,"street":"Marconilaan","number":"23C","zipcode":"5612 HM","city":"Eindhoven","phone_number":"+31 40 243 6362","rating":4.2},{"id":112,"name":"Coffeeshop Bamboo Beach Club","url_name":"\/nl\/in\/delft\/coffeeshop-bamboo-beach-club","lat":52.01273,"lng":4.359017,"street":"De Vlouw","number":"48","zipcode":"2611 EZ","city":"Delft","phone_number":"+31 15 213 6172","rating":4.6},{"id":113,"name":"Upstairs","url_name":"\/nl\/in\/eindhoven\/upstairs","lat":51.436939,"lng":5.480465,"street":"Stratumseind","number":"25A","zipcode":"5611 EN","city":"Eindhoven","phone_number":"+31 6 24891985","rating":4},{"id":114,"name":"Maximillian","url_name":"\/nl\/in\/tilburg\/maximillian","lat":51.550007,"lng":5.069882,"street":"Korvelseweg","number":"192","zipcode":"5025 JM","city":"Tilburg","phone_number":"+31 13 535 2189","rating":4.3},{"id":115,"name":"Coffeeshop Buy Bye","url_name":"\/nl\/in\/gouda\/coffeeshop-buy-bye","lat":52.012611,"lng":4.712219,"street":"Speldenmakerssteeg","number":"8","zipcode":"2801 XN","city":"Gouda","phone_number":"","rating":4.1},{"id":116,"name":"Purple Rain","url_name":"\/nl\/in\/breda\/purple-rain","lat":51.593475,"lng":4.7799,"street":"Willemstraat","number":"12","zipcode":"4811 AK","city":"Breda","phone_number":"+31 76 522 9252","rating":3.8},{"id":120,"name":"Northern Light X","url_name":"\/nl\/in\/etten-leur\/northern-light-x","lat":51.573166,"lng":4.644461,"street":"Wilhelminalaan","number":"16","zipcode":"4872 BX","city":"Etten-Leur","phone_number":"+31 76 526 9822","rating":3.5},{"id":121,"name":"Oya","url_name":"\/nl\/in\/gouda\/oya","lat":52.010464,"lng":4.7073,"street":"Lange Groenendaal","number":"104","zipcode":"2801 LV","city":"Gouda","phone_number":"+31 182 514 974","rating":4.6},{"id":123,"name":"Coffeeshop Amigo","url_name":"\/nl\/in\/rotterdam\/coffeeshop-amigo","lat":51.913067,"lng":4.464071,"street":"'s-Gravendijkwal","number":"138D","zipcode":"3015 CC","city":"Rotterdam","phone_number":"+31 10 225 1111","rating":4.2},{"id":125,"name":"Coffeeshop Bob Marley","url_name":"\/nl\/in\/rotterdam\/coffeeshop-bob-marley","lat":51.910934,"lng":4.451678,"street":"Nieuwe Binnenweg","number":"403-A","zipcode":"3023 EM","city":"Rotterdam","phone_number":"+31 10 425 7154","rating":3.9},{"id":126,"name":"Koffieshop Pasja","url_name":"\/nl\/in\/tilburg\/koffieshop-pasja","lat":51.555721,"lng":5.072476,"street":"Bredaseweg","number":"123","zipcode":"5038 NC","city":"Tilburg","phone_number":"+31 13 544 1135","rating":4.4},{"id":128,"name":"De Vrolijke Gaper","url_name":"\/nl\/in\/gorinchem\/de-vrolijke-gaper","lat":51.828854,"lng":4.97485,"street":"Molenstraat","number":"23","zipcode":"4201 CV","city":"Gorinchem","phone_number":"+31 183 690 501","rating":4.4},{"id":129,"name":"Inpetto","url_name":"\/nl\/in\/rotterdam\/inpetto","lat":51.889805,"lng":4.503781,"street":"Strevelsweg","number":"37","zipcode":"3073 DS","city":"Rotterdam","phone_number":"+31 10 845 3358","rating":4.4},{"id":132,"name":"Out Of Time","url_name":"\/nl\/in\/rotterdam\/out-of-time","lat":51.911812,"lng":4.45327,"street":"Nieuwe Binnenweg","number":"363","zipcode":"3023 EJ","city":"Rotterdam","phone_number":"+31 10 478 0859","rating":4.1},{"id":133,"name":"Catweazle","url_name":"\/nl\/in\/culemborg\/catweazle-1","lat":51.958542,"lng":5.223873,"street":"Kattenstraat","number":"7","zipcode":"4101 BL","city":"Culemborg","phone_number":"+31 345 533 787","rating":4.6},{"id":135,"name":"De Grasspriet","url_name":"\/nl\/in\/rotterdam\/de-grasspriet","lat":51.897446,"lng":4.511402,"street":"Slaghekstraat","number":"58A","zipcode":"3074 LN","city":"Rotterdam","phone_number":"+31 10 432 8376","rating":4.6},{"id":136,"name":"Cafe-bar Drechtsteden","url_name":"\/nl\/in\/sliedrecht\/cafe-bar-drechtsteden","lat":51.824306,"lng":4.766144,"street":"A.W. de Landgraafstraat","number":"6","zipcode":"3361 EB","city":"Sliedrecht","phone_number":"+31 184 418 685","rating":3.6},{"id":138,"name":"Coffeeshop Maashaven","url_name":"\/nl\/in\/rotterdam\/coffeeshop-maashaven","lat":51.896206,"lng":4.491457,"street":"Brielselaan","number":"48-B","zipcode":"3081 LC","city":"Rotterdam","phone_number":"+31 6 19203274","rating":4},{"id":141,"name":"Coffeeshop Upstairs","url_name":"\/nl\/in\/arnhem\/coffeeshop-upstairs","lat":51.981728,"lng":5.910615,"street":"Beekstraat","number":"109","zipcode":"6811 DZ","city":"Arnhem","phone_number":"+31 26 351 5397","rating":4.3},{"id":142,"name":"Dakota","url_name":"\/nl\/in\/nijmegen\/dakota","lat":51.848354,"lng":5.855951,"street":"Lange Hezelstraat","number":"113-A","zipcode":"6511 CG","city":"Nijmegen","phone_number":"+31 24 322 2537","rating":4.5},{"id":144,"name":"De Professor","url_name":"\/nl\/in\/hilversum\/de-professor","lat":52.226067,"lng":5.186198,"street":"Kleine Drift","number":"74","zipcode":"1221 KB","city":"Hilversum","phone_number":"+31 35 685 4561","rating":4.5},{"id":145,"name":"Coffeeshop Rif","url_name":"\/nl\/in\/hilversum\/coffeeshop-rif-1","lat":52.22596,"lng":5.179287,"street":"Leeuwenstraat","number":"34","zipcode":"1211 EV","city":"Hilversum","phone_number":"+31 35 624 1479","rating":4},{"id":146,"name":"The Future","url_name":"\/nl\/in\/apeldoorn\/the-future","lat":52.215313,"lng":5.959422,"street":"Nieuwstraat","number":"64-A+B","zipcode":"7311 BT","city":"Apeldoorn","phone_number":"+31 6 81619354","rating":4.4},{"id":147,"name":"Coffeeshop 't Nijmegen Wonder","url_name":"\/nl\/in\/nijmegen\/coffeeshop-t-nijmegen-wonder","lat":51.844414,"lng":5.859467,"street":"Smetiusstraat","number":"13","zipcode":"6511 ER","city":"Nijmegen","phone_number":"+31 24 322 4452","rating":4.2},{"id":148,"name":"Coffeeshop Dreadlock & Jetset","url_name":"\/nl\/in\/nijmegen\/coffeeshop-dreadlock-jetset","lat":51.843655,"lng":5.86288,"street":"Vlaamsegas","number":"9-15","zipcode":"6511 HR","city":"Nijmegen","phone_number":"+31 24 388 8517","rating":4.5},{"id":149,"name":"Coffeeshop Green Valley","url_name":"\/nl\/in\/ede\/coffeeshop-green-valley","lat":52.042515,"lng":5.667778,"street":"De Halte","number":"21A","zipcode":"6711 NZ","city":"Ede","phone_number":"+31 6 22342130","rating":4.6},{"id":150,"name":"Sindbad","url_name":"\/nl\/in\/eindhoven\/sindbad","lat":51.438709,"lng":5.503947,"street":"Hobbemastraat","number":"17","zipcode":"5613 HK","city":"Eindhoven","phone_number":"+31 6 26282827","rating":4.1},{"id":151,"name":"The Grass Company Maastrichtseweg","url_name":"\/nl\/in\/s-hertogenbosch\/the-grass-company-maastrichtseweg","lat":51.687881,"lng":5.323052,"street":"Maastrichtseweg","number":"70","zipcode":"5215 XC","city":"'s-Hertogenbosch","phone_number":"+31 73 610 0825","rating":3.9},{"id":152,"name":"The jungle","url_name":"\/nl\/in\/oss\/the-jungle","lat":51.761578,"lng":5.510435,"street":"Kromstraat","number":"112","zipcode":"5345 AE","city":"Oss","phone_number":"+31 412 649 429","rating":3.8},{"id":153,"name":"Coffeeshop The Zoo","url_name":"\/nl\/in\/zutphen\/coffeeshop-the-zoo","lat":52.14164,"lng":6.202599,"street":"Laarstraat","number":"87","zipcode":"7201 CC","city":"Zutphen","phone_number":"+31 575 511 795","rating":3.7},{"id":154,"name":"Coffeeshop The Kink","url_name":"\/nl\/in\/ede\/coffeeshop-the-kink","lat":52.042343,"lng":5.667636,"street":"De Halte","number":"81","zipcode":"6711 NZ","city":"Ede","phone_number":"+31 318 613 663","rating":4.6},{"id":155,"name":"Kronkel","url_name":"\/nl\/in\/nijmegen\/kronkel","lat":51.843712,"lng":5.862784,"street":"Vlaamsegas","number":"30","zipcode":"6511 HR","city":"Nijmegen","phone_number":"+31 24 324 0909","rating":4.6},{"id":156,"name":"Coffeeshop The Walm","url_name":"\/nl\/in\/arnhem\/coffeeshop-the-walm","lat":51.985977,"lng":5.915333,"street":"Sonsbeeksingel","number":"115","zipcode":"6822 BJ","city":"Arnhem","phone_number":"","rating":4.4},{"id":157,"name":"Koffieshop Lamar","url_name":"\/nl\/in\/tiel\/koffieshop-lamar","lat":51.886814,"lng":5.435355,"street":"Ambtmanstraat","number":"1","zipcode":"4001 MC","city":"Tiel","phone_number":"","rating":4.6},{"id":158,"name":"Power Flower","url_name":"\/nl\/in\/apeldoorn\/power-flower","lat":52.198757,"lng":5.960161,"street":"Arnhemseweg","number":"181","zipcode":"7331 BH","city":"Apeldoorn","phone_number":"","rating":4.5},{"id":159,"name":"Coffeeshop Horizon","url_name":"\/nl\/in\/amersfoort\/coffeeshop-horizon","lat":52.15379,"lng":5.386749,"street":"Achter de Arnhemse Poortwal","number":"55","zipcode":"3811 LX","city":"Amersfoort","phone_number":"+31 33 461 2756","rating":4.2},{"id":160,"name":"Coffeeshop De Kikker","url_name":"\/nl\/in\/hilversum\/coffeeshop-de-kikker-1","lat":52.228771,"lng":5.179284,"street":"Koninginneweg","number":"109","zipcode":"1211 AP","city":"Hilversum","phone_number":"+31 35 621 8476","rating":4.3},{"id":161,"name":"Halicarnas Coffeeshop","url_name":"\/nl\/in\/venray\/halicarnas-coffeeshop","lat":51.522568,"lng":5.975055,"street":"Henseniusstraat","number":"47","zipcode":"5801 AW","city":"Venray","phone_number":"+31 6 18624862","rating":4.4},{"id":164,"name":"Coffeeshop Venray Switch","url_name":"\/nl\/in\/venray\/coffeeshop-venray-switch","lat":51.523815,"lng":5.974983,"street":"Henseniusstraat","number":"7","zipcode":"5801 AW","city":"Venray","phone_number":"+31 478 511 968","rating":4.4},{"id":165,"name":"Coffeeshop Rivia","url_name":"\/nl\/in\/zeist\/coffeeshop-rivia","lat":52.091766,"lng":5.242902,"street":"Steynlaan","number":"90","zipcode":"3701 EJ","city":"Zeist","phone_number":"+31 30 691 8408","rating":4.2},{"id":166,"name":"Smoke or Buggy coffeeshop","url_name":"\/nl\/in\/nijmegen\/smoke-or-buggy-coffeeshop","lat":51.847569,"lng":5.865426,"street":"Platenmakersstraat","number":"8","zipcode":"6511 VA","city":"Nijmegen","phone_number":"+49 1578 7055257","rating":4.4},{"id":168,"name":"'T Kunsje","url_name":"\/nl\/in\/nijmegen\/t-kunsje","lat":51.843323,"lng":5.86236,"street":"Tweede Walstraat","number":"108","zipcode":"6511 LW","city":"Nijmegen","phone_number":"+31 24 323 7955","rating":4.6},{"id":171,"name":"Andorra","url_name":"\/nl\/in\/hilversum\/andorra","lat":52.224384,"lng":5.181039,"street":"Schapenkamp","number":"192A","zipcode":"1211 GJ","city":"Hilversum","phone_number":"+31 35 621 6196","rating":4.6},{"id":172,"name":"Coffeeshop Kruidentuin","url_name":"\/nl\/in\/nijmegen\/coffeeshop-kruidentuin","lat":51.847988,"lng":5.864054,"street":"Kannenmarkt","number":"9","zipcode":"6511 KC","city":"Nijmegen","phone_number":"","rating":4.1},{"id":173,"name":"Coffeshop National","url_name":"\/nl\/in\/veenendaal\/coffeshop-national","lat":52.029087,"lng":5.559415,"street":"Prins Bernhardlaan","number":"3","zipcode":"3901 CA","city":"Veenendaal","phone_number":"+31 318 526 157","rating":4.2},{"id":176,"name":"Piramide","url_name":"\/nl\/in\/bussum\/piramide","lat":52.273216,"lng":5.165221,"street":"Kapelstraat","number":"43-A","zipcode":"1404 HW","city":"Bussum","phone_number":"+31 35 693 6465","rating":4.6},{"id":177,"name":"Guna Guna","url_name":"\/nl\/in\/uden\/guna-guna","lat":51.657692,"lng":5.610717,"street":"Sint Janstraat","number":"31A","zipcode":"5401 BA","city":"Uden","phone_number":"+31 413 269 316","rating":3.4},{"id":179,"name":"Koffiebar Ok\u00e9","url_name":"\/nl\/in\/hilversum\/koffiebar-ok","lat":52.228409,"lng":5.176266,"street":"Naarderstraat","number":"47","zipcode":"1211 AJ","city":"Hilversum","phone_number":"+31 6 27062514","rating":4.2},{"id":182,"name":"Coffeeshop Miami","url_name":"\/nl\/in\/enschede\/coffeeshop-miami","lat":52.221504,"lng":6.893618,"street":"Noorderhagen","number":"5","zipcode":"7511 EJ","city":"Enschede","phone_number":"","rating":4.2},{"id":183,"name":"Coffeeshop The Black Sea","url_name":"\/nl\/in\/enschede\/coffeeshop-the-black-sea","lat":52.22123,"lng":6.894358,"street":"Stadsgravenstraat","number":"8","zipcode":"7511 ES","city":"Enschede","phone_number":"+49 176 84281056","rating":4.7},{"id":184,"name":"Grasshopper Coffeeshop","url_name":"\/nl\/in\/enschede\/grasshopper-coffeeshop","lat":52.214958,"lng":6.975601,"street":"Gronausestraat","number":"1208","zipcode":"7534 AT","city":"Enschede","phone_number":"+31 53 461 5679","rating":4.2},{"id":185,"name":"Sky High Coffeeshop","url_name":"\/nl\/in\/zwolle\/sky-high-coffeeshop","lat":52.507538,"lng":6.095994,"street":"Van Karnebeekstraat","number":"41","zipcode":"8011 JB","city":"Zwolle","phone_number":"+31 38 423 0273","rating":4.4},{"id":187,"name":"Coffeeshop Gabriela","url_name":"\/nl\/in\/enschede\/coffeeshop-gabriela","lat":52.216007,"lng":6.88901,"street":"Haaksbergerstraat","number":"126-D","zipcode":"7513 EA","city":"Enschede","phone_number":"+31 53 430 4864","rating":3.8},{"id":188,"name":"Moby Dick","url_name":"\/nl\/in\/hengelo\/moby-dick","lat":52.264366,"lng":6.787831,"street":"Emmaweg","number":"4","zipcode":"7551 BH","city":"Hengelo","phone_number":"+31 74 250 0270","rating":4.1},{"id":190,"name":"Coffeeshop De Tuin","url_name":"\/nl\/in\/almelo\/coffeeshop-de-tuin","lat":52.359585,"lng":6.664714,"street":"Willemsgang","number":"17","zipcode":"7607 BL","city":"Almelo","phone_number":"+31 546 532 636","rating":3.8},{"id":191,"name":"Uncle Sam","url_name":"\/nl\/in\/arnhem\/uncle-sam","lat":51.984013,"lng":5.920759,"street":"Driekoningenstraat","number":"21-A","zipcode":"6828 EL","city":"Arnhem","phone_number":"+31 26 351 2644","rating":4.2},{"id":192,"name":"Caf\u00e9 Mix","url_name":"\/nl\/in\/enschede\/caf-mix","lat":52.220772,"lng":6.898206,"street":"Haverstraatpassage","number":"44-46","zipcode":"7511 EM","city":"Enschede","phone_number":"+31 6 20006103","rating":4.6},{"id":193,"name":"Sensi Shop","url_name":"\/nl\/in\/winterswijk\/sensi-shop","lat":51.970909,"lng":6.715537,"street":"Jonenstraat","number":"8","zipcode":"7101 GA","city":"Winterswijk","phone_number":"+31 543 516 218","rating":4.3},{"id":194,"name":"Lucky Luck Softdrugs Shop","url_name":"\/nl\/in\/arnhem\/lucky-luck-softdrugs-shop","lat":51.986053,"lng":5.913845,"street":"Sonsbeeksingel","number":"91","zipcode":"6821 AC","city":"Arnhem","phone_number":"+31 26 351 9090","rating":4.3},{"id":195,"name":"Far Out","url_name":"\/nl\/in\/dedemsvaart\/far-out","lat":52.599949,"lng":6.457781,"street":"Wisseling","number":"5","zipcode":"7701 GR","city":"Dedemsvaart","phone_number":"+31 523 610 200","rating":4.4},{"id":196,"name":"Coffeeshop De Tulp","url_name":"\/nl\/in\/zwolle\/coffeeshop-de-tulp","lat":52.511868,"lng":6.088487,"street":"Kamperstraat","number":"39","zipcode":"8011 LK","city":"Zwolle","phone_number":"+31 38 230 9554","rating":4.5},{"id":197,"name":"Coffeeshop 't Keldertje","url_name":"\/nl\/in\/kampen\/coffeeshop-t-keldertje","lat":52.558113,"lng":5.915672,"street":"Boven Nieuwstraat","number":"119","zipcode":"8261 HC","city":"Kampen","phone_number":"+31 38 230 4172","rating":3.8},{"id":198,"name":"THC","url_name":"\/nl\/in\/arnhem\/thc","lat":51.986031,"lng":5.914651,"street":"Sonsbeeksingel","number":"101","zipcode":"6822 BJ","city":"Arnhem","phone_number":"+31 26 443 5934","rating":4.2},{"id":199,"name":"coffeeshop Zero Zero","url_name":"\/nl\/in\/arnhem\/coffeeshop-zero-zero","lat":51.98632,"lng":5.914102,"street":"Hommelseweg","number":"19","zipcode":"6821 LA","city":"Arnhem","phone_number":"+31 26 445 8706","rating":4.6},{"id":200,"name":"Happy Days Arnhem B.V.","url_name":"\/nl\/in\/arnhem\/happy-days-arnhem-bv","lat":51.98127,"lng":5.903736,"street":"Oude Oeverstraat","number":"6","zipcode":"6811 JX","city":"Arnhem","phone_number":"+31 26 351 2921","rating":4.1},{"id":201,"name":"Plein 48","url_name":"\/nl\/in\/zutphen\/plein-48","lat":52.140736,"lng":6.198166,"street":"Vaaltstraat","number":"23","zipcode":"7201 CZ","city":"Zutphen","phone_number":"+31 575 513 009","rating":4.3},{"id":204,"name":"Coffeeshop alien","url_name":"\/nl\/in\/steenwijk\/coffeeshop-alien","lat":52.786743,"lng":6.113459,"street":"Korte Woldpromenade","number":"8","zipcode":"8331 JK","city":"Steenwijk","phone_number":"+31 521 522 823","rating":4.2},{"id":205,"name":"Ankara","url_name":"\/nl\/in\/coevorden\/ankara","lat":52.660412,"lng":6.740792,"street":"Bentheimerstraat","number":"16","zipcode":"7741 JK","city":"Coevorden","phone_number":"+31 524 516 618","rating":4.4},{"id":206,"name":"Coffeeshop Dikrayaat Wolvega","url_name":"\/nl\/in\/wolvega\/coffeeshop-dikrayaat-wolvega","lat":52.877151,"lng":6.001854,"street":"Heerenveenseweg","number":"12","zipcode":"8471 BE","city":"Wolvega","phone_number":"+31 6 38829019","rating":4.8},{"id":208,"name":"Metamorphose","url_name":"\/nl\/in\/groningen\/metamorphose","lat":53.220375,"lng":6.563761,"street":"Oude Boteringestraat","number":"53\/1","zipcode":"9712 GE","city":"Groningen","phone_number":"+31 50 314 4460","rating":4.5},{"id":209,"name":"Coffeeshop Relax","url_name":"\/nl\/in\/meppel\/coffeeshop-relax","lat":52.696022,"lng":6.194324,"street":"Prinsengracht","number":"15","zipcode":"7941 KD","city":"Meppel","phone_number":"+31 522 253 536","rating":4.2},{"id":211,"name":"Cheers","url_name":"\/nl\/in\/emmen\/cheers","lat":52.787834,"lng":6.893333,"street":"Derksstraat","number":"29","zipcode":"7811 AL","city":"Emmen","phone_number":"+31 591 644 790","rating":3.9},{"id":213,"name":"Coffeeshop Dam","url_name":"\/nl\/in\/veendam\/coffeeshop-dam","lat":53.10268,"lng":6.883294,"street":"Molenstreek","number":"139","zipcode":"9641 CL","city":"Veendam","phone_number":"+31 6 84924023","rating":4.1},{"id":214,"name":"The Flying Dutchman","url_name":"\/nl\/in\/groningen\/the-flying-dutchman","lat":53.214787,"lng":6.566754,"street":"Gedempte Zuiderdiep","number":"63","zipcode":"9711 HC","city":"Groningen","phone_number":"+31 50 314 4807","rating":4.3},{"id":215,"name":"The Happy Corner","url_name":"\/nl\/in\/assen\/the-happy-corner","lat":52.997639,"lng":6.562099,"street":"Oude Molenstraat","number":"115-117","zipcode":"9401 DS","city":"Assen","phone_number":"","rating":3.5},{"id":216,"name":"Rag-a-muffin","url_name":"\/nl\/in\/groningen\/rag-a-muffin","lat":53.228741,"lng":6.559795,"street":"Noorderstationsstraat","number":"15","zipcode":"9716 AN","city":"Groningen","phone_number":"+31 50 571 4181","rating":4.2},{"id":217,"name":"De Medley","url_name":"\/nl\/in\/groningen\/de-medley","lat":53.214485,"lng":6.566911,"street":"Gedempte Zuiderdiep","number":"64","zipcode":"9711 HK","city":"Groningen","phone_number":"+31 6 20038183","rating":4.2},{"id":219,"name":"Coffeeshop 'Flower Power'","url_name":"\/nl\/in\/amsterdam\/coffeeshop-flower-power","lat":52.372715,"lng":4.878599,"street":"Rozengracht","number":"139","zipcode":"1016 LV","city":"Amsterdam","phone_number":"+31 6 51611014","rating":4.1},{"id":220,"name":"Resin Coffeeshop","url_name":"\/nl\/in\/amsterdam\/resin-coffeeshop","lat":52.377808,"lng":4.895359,"street":"Hekelveld","number":"7","zipcode":"1012 SN","city":"Amsterdam","phone_number":"+31 6 81949819","rating":4.4},{"id":221,"name":"Coffeeshop Charlois","url_name":"\/nl\/in\/rotterdam\/coffeeshop-charlois","lat":51.89212,"lng":4.480947,"street":"Bas Jungeriusstraat","number":"161-B","zipcode":"3081 VB","city":"Rotterdam","phone_number":"+31 6 31195952","rating":4.4},{"id":223,"name":"Coffeeshop Majestic","url_name":"\/nl\/in\/breda\/coffeeshop-majestic","lat":51.591114,"lng":4.784184,"street":"Boschstraat","number":"154","zipcode":"4811 GL","city":"Breda","phone_number":"+31 76 513 8057","rating":3.7},{"id":224,"name":"The Grass Company","url_name":"\/nl\/in\/tilburg\/the-grass-company","lat":51.559704,"lng":5.08694,"street":"Spoorlaan","number":"360","zipcode":"5038 CD","city":"Tilburg","phone_number":"+31 13 582 1420","rating":4.4},{"id":225,"name":"Coffeeshop Ras Elma","url_name":"\/nl\/in\/rotterdam\/coffeeshop-ras-elma","lat":51.90699,"lng":4.508433,"street":"Oranjeboomstraat","number":"257","zipcode":"3071 SM","city":"Rotterdam","phone_number":"+31 10 485 3577","rating":4.3},{"id":226,"name":"Coffeeshop Manhattan","url_name":"\/nl\/in\/waalwijk\/coffeeshop-manhattan","lat":51.682072,"lng":5.078363,"street":"Bloemenoordplein","number":"40A","zipcode":"5143 TC","city":"Waalwijk","phone_number":"+31 416 349 007","rating":4.4},{"id":228,"name":"Fly'n'Hy","url_name":"\/nl\/in\/breda\/flynhy","lat":51.586437,"lng":4.777335,"street":"Houtmarkt","number":"23","zipcode":"4811 JC","city":"Breda","phone_number":"+31 76 520 0519","rating":4},{"id":229,"name":"Sensi Smile","url_name":"\/nl\/in\/rotterdam\/sensi-smile","lat":51.919666,"lng":4.462953,"street":"Henegouwerlaan","number":"73","zipcode":"3021 CT","city":"Rotterdam","phone_number":"+31 10 476 3252","rating":4.3},{"id":230,"name":"The Game Delft","url_name":"\/nl\/in\/delft\/the-game-delft","lat":52.008396,"lng":4.361162,"street":"Breestraat","number":"30","zipcode":"2611 RG","city":"Delft","phone_number":"+31 15 214 7404","rating":4.3},{"id":231,"name":"Crackers","url_name":"\/nl\/in\/tilburg\/crackers","lat":51.555813,"lng":5.070993,"street":"Bredaseweg","number":"165","zipcode":"5038 ND","city":"Tilburg","phone_number":"+31 13 543 2239","rating":4.2},{"id":233,"name":"Coffeeshop Countdown","url_name":"\/nl\/in\/rotterdam\/coffeeshop-countdown","lat":51.890965,"lng":4.477681,"street":"Wolphaertsbocht","number":"281","zipcode":"3083 MN","city":"Rotterdam","phone_number":"+31 10 481 6998","rating":4.2},{"id":236,"name":"Mon Camarade","url_name":"\/nl\/in\/rotterdam\/mon-camarade","lat":51.919678,"lng":4.465999,"street":"1e Middellandstraat","number":"10-A","zipcode":"3014 BD","city":"Rotterdam","phone_number":"+31 10 436 3047","rating":4.4},{"id":237,"name":"the Wedren","url_name":"\/nl\/in\/nijmegen\/the-wedren","lat":51.838562,"lng":5.869466,"street":"Prins Bernhardstraat","number":"71","zipcode":"6521 AD","city":"Nijmegen","phone_number":"+31 24 360 6331","rating":4.4},{"id":238,"name":"The Paradise","url_name":"\/nl\/in\/hilversum\/the-paradise","lat":52.225159,"lng":5.179492,"street":"Spoorstraat","number":"45","zipcode":"1211 GA","city":"Hilversum","phone_number":"+31 35 628 1992","rating":3.9},{"id":240,"name":"Scorpio Coffee Shop","url_name":"\/nl\/in\/ulft\/scorpio-coffee-shop","lat":51.889851,"lng":6.385631,"street":"Bongersstraat","number":"6","zipcode":"7071 CN","city":"Ulft","phone_number":"+31 315 631 117","rating":3.8},{"id":241,"name":"Headshop","url_name":"\/nl\/in\/nijmegen\/headshop","lat":51.846081,"lng":5.870635,"street":"Kelfkensbos","number":"46","zipcode":"6511 TB","city":"Nijmegen","phone_number":"+31 24 323 2924","rating":4.4},{"id":242,"name":"Meet Point","url_name":"\/nl\/in\/eindhoven\/meet-point","lat":51.452915,"lng":5.459782,"street":"Edisonstraat","number":"91","zipcode":"5621 HL","city":"Eindhoven","phone_number":"+31 40 244 0122","rating":4.3},{"id":249,"name":"Coffeeshop Rokade","url_name":"\/nl\/in\/hengelo\/coffeeshop-rokade","lat":52.266464,"lng":6.789802,"street":"Deldenerstraat","number":"14","zipcode":"7551 AE","city":"Hengelo","phone_number":"+31 74 250 2377","rating":4.6},{"id":258,"name":"Swaan","url_name":"\/nl\/in\/meppel\/swaan","lat":52.694782,"lng":6.190455,"street":"Zuideinde","number":"22","zipcode":"7941 GH","city":"Meppel","phone_number":"+31 522 251 299","rating":3.8},{"id":259,"name":"Coffeeshop Havana","url_name":"\/nl\/in\/winschoten\/coffeeshop-havana","lat":53.142025,"lng":7.038795,"street":"Torenstraat","number":"19-B","zipcode":"9671 EC","city":"Winschoten","phone_number":"+31 597 430 433","rating":3.5},{"id":260,"name":"Gili Senang","url_name":"\/nl\/in\/drachten\/gili-senang","lat":53.106853,"lng":6.106926,"street":"Zuidkade","number":"71","zipcode":"9203 CP","city":"Drachten","phone_number":"","rating":4.2},{"id":261,"name":"Caf\u00e9 Ankara Emmen","url_name":"\/nl\/in\/emmen\/caf-ankara-emmen","lat":52.787212,"lng":6.895004,"street":"Minister Kanstraat","number":"3","zipcode":"7811 ES","city":"Emmen","phone_number":"+31 591 617 293","rating":4},{"id":264,"name":"WIZ- Art Rooksalon","url_name":"\/nl\/in\/stadskanaal\/wiz-art-rooksalon","lat":52.995949,"lng":6.93913,"street":"Handelsstraat","number":"59","zipcode":"9501 EW","city":"Stadskanaal","phone_number":"+31 599 610 852","rating":4.6},{"id":267,"name":"Coffeeshop A7","url_name":"\/nl\/in\/hoogezand\/coffeeshop-a7","lat":53.160587,"lng":6.756279,"street":"Parallelweg","number":"1","zipcode":"9601 HR","city":"Hoogezand","phone_number":"+31 598 398 037","rating":4},{"id":268,"name":"Retro","url_name":"\/nl\/in\/groningen\/retro","lat":53.2239,"lng":6.564396,"street":"Boterdiep","number":"42","zipcode":"9712 LR","city":"Groningen","phone_number":"+31 50 850 6611","rating":4.2},{"id":269,"name":"Hakuna Matata Juice Bar","url_name":"\/nl\/in\/drachten\/hakuna-matata-juice-bar","lat":53.107426,"lng":6.105373,"street":"Noordkade","number":"74","zipcode":"9203 CG","city":"Drachten","phone_number":"+31 512 521 798","rating":4.5},{"id":270,"name":"Coffeeshop New Generation","url_name":"\/nl\/in\/farmsum\/coffeeshop-new-generation","lat":53.319496,"lng":6.923911,"street":"Hogelandsterweg","number":"8","zipcode":"9936 BH","city":"Farmsum","phone_number":"+31 596 615 094","rating":4.3},{"id":271,"name":"The Happy Family B.V.","url_name":"\/nl\/in\/hoogezand\/the-happy-family-bv","lat":53.163143,"lng":6.747593,"street":"Meint Veningastraat","number":"74","zipcode":"9601 KH","city":"Hoogezand","phone_number":"+31 598 392 808","rating":4.4},{"id":274,"name":"Storm","url_name":"\/nl\/in\/groningen\/storm","lat":53.221615,"lng":6.564908,"street":"Spilsluizen","number":"6","zipcode":"9712 NS","city":"Groningen","phone_number":"+31 50 312 6262","rating":4.5},{"id":275,"name":"Caf\u00e9 Dees","url_name":"\/nl\/in\/groningen\/caf-dees","lat":53.217422,"lng":6.570429,"street":"Papengang","number":"3","zipcode":"9711 PA","city":"Groningen","phone_number":"+31 50 313 2410","rating":4.3},{"id":277,"name":"T.o.v. B.V.","url_name":"\/nl\/in\/veendam\/tov-bv","lat":53.102989,"lng":6.877952,"street":"Bocht Oosterdiep","number":"29","zipcode":"9641 JH","city":"Veendam","phone_number":"+31 598 628 151","rating":4.5},{"id":280,"name":"Hofnar Harlingen","url_name":"\/nl\/in\/harlingen\/hofnar-harlingen","lat":53.174568,"lng":5.422886,"street":"Franekereind","number":"17","zipcode":"8861 AA","city":"Harlingen","phone_number":"+31 517 418 929","rating":4.6},{"id":281,"name":"Repelsteeltje Grand Koffieshop","url_name":"\/nl\/in\/leeuwarden\/repelsteeltje-grand-koffieshop","lat":53.202606,"lng":5.796894,"street":"Grote Hoogstraat","number":"44","zipcode":"8911 HB","city":"Leeuwarden","phone_number":"+31 58 216 4822","rating":4.6},{"id":282,"name":"Koffieshop Relax","url_name":"\/nl\/in\/leeuwarden\/koffieshop-relax","lat":53.203167,"lng":5.802392,"street":"Tuinen","number":"33","zipcode":"8911 KC","city":"Leeuwarden","phone_number":"+31 58 299 0564","rating":4.4},{"id":283,"name":"Koffie-theehuis Esara","url_name":"\/nl\/in\/sneek\/koffie-theehuis-esara","lat":53.030365,"lng":5.661599,"street":"Singel","number":"65","zipcode":"8601 AH","city":"Sneek","phone_number":"+31 515 425 119","rating":4.3},{"id":284,"name":"Flower Power Coffeeshop","url_name":"\/nl\/in\/leeuwarden\/flower-power-coffeeshop","lat":53.202763,"lng":5.802505,"street":"Tuinen","number":"38","zipcode":"8911 KE","city":"Leeuwarden","phone_number":"+31 58 212 4823","rating":4.3},{"id":285,"name":"De Os","url_name":"\/nl\/in\/leeuwarden\/de-os","lat":53.201916,"lng":5.799313,"street":"Korfmakersstraat","number":"2","zipcode":"8911 LA","city":"Leeuwarden","phone_number":"+31 58 212 7792","rating":4.5},{"id":286,"name":"Canupa BV","url_name":"\/nl\/in\/heerenveen\/canupa-bv","lat":52.959133,"lng":5.923089,"street":"Gedempte Molenwijk","number":"19","zipcode":"8442 BG","city":"Heerenveen","phone_number":"","rating":4.6},{"id":287,"name":"Coffeeshop Utoop","url_name":"\/nl\/in\/leeuwarden\/coffeeshop-utoop","lat":53.202263,"lng":5.797239,"street":"Grote Hoogstraat","number":"34","zipcode":"8911 HB","city":"Leeuwarden","phone_number":"+31 58 215 7484","rating":4.5},{"id":288,"name":"Coffeeshop American","url_name":"\/nl\/in\/leeuwarden\/coffeeshop-american","lat":53.202866,"lng":5.804516,"street":"Noordvliet","number":"13","zipcode":"8921 GD","city":"Leeuwarden","phone_number":"+31 58 785 6120","rating":4.1},{"id":289,"name":"Koffieshop Liberty","url_name":"\/nl\/in\/leeuwarden\/koffieshop-liberty","lat":53.201477,"lng":5.795828,"street":"Herenwaltje","number":"12","zipcode":"8911 HN","city":"Leeuwarden","phone_number":"+31 6 13922999","rating":4.4},{"id":291,"name":"De Vriendschap","url_name":"\/nl\/in\/leeuwarden\/de-vriendschap","lat":53.202446,"lng":5.806081,"street":"Zuidvliet","number":"44","zipcode":"8921 BM","city":"Leeuwarden","phone_number":"+31 58 785 2081","rating":4},{"id":292,"name":"Coffeeshop De Wit","url_name":"\/nl\/in\/heerenveen\/coffeeshop-de-wit","lat":52.960953,"lng":5.925077,"street":"Vermaningsteeg","number":"12","zipcode":"8441 GB","city":"Heerenveen","phone_number":"+31 513 654 499","rating":4.5},{"id":293,"name":"Tops Coffeeshop","url_name":"\/nl\/in\/den-helder\/tops-coffeeshop","lat":52.961155,"lng":4.761952,"street":"Koningstraat","number":"34","zipcode":"1781 KH","city":"Den Helder","phone_number":"+31 223 627 242","rating":4.7},{"id":294,"name":"Any Time","url_name":"\/nl\/in\/alkmaar\/any-time","lat":52.628696,"lng":4.752209,"street":"Laat","number":"16","zipcode":"1811 EJ","city":"Alkmaar","phone_number":"+31 72 512 5400","rating":4.5},{"id":295,"name":"Blue Tomato B.V.","url_name":"\/nl\/in\/hoorn\/blue-tomato-bv","lat":52.640087,"lng":5.095585,"street":"Neutronweg","number":"11","zipcode":"1627 LG","city":"Hoorn","phone_number":"+31 229 247 164","rating":4.7},{"id":296,"name":"Caf\u00e9 De Brug","url_name":"\/nl\/in\/alkmaar\/caf-de-brug","lat":52.632317,"lng":4.753002,"street":"Herenstraat","number":"1","zipcode":"1811 MH","city":"Alkmaar","phone_number":"+31 72 515 5465","rating":4.4},{"id":297,"name":"Downtown Juice & Coffee","url_name":"\/nl\/in\/leeuwarden\/downtown-juice-coffee","lat":53.203114,"lng":5.799394,"street":"Wortelhaven","number":"85","zipcode":"8911 GL","city":"Leeuwarden","phone_number":"+31 58 213 4945","rating":4.5},{"id":298,"name":"Easy Going B.V.","url_name":"\/nl\/in\/maastricht\/easy-going-bv","lat":50.851322,"lng":5.693421,"street":"Hoenderstraat","number":"8","zipcode":"6211 EM","city":"Maastricht","phone_number":"+31 43 855 2345","rating":4.5},{"id":300,"name":"Cool Runnings","url_name":"\/nl\/in\/maastricht\/cool-runnings","lat":50.849556,"lng":5.684385,"street":"Brusselsestraat","number":"35","zipcode":"6211 PB","city":"Maastricht","phone_number":"+31 43 855 6020","rating":4.8},{"id":301,"name":"Klein maar fijn","url_name":"\/nl\/in\/venlo\/klein-maar-fijn","lat":51.373444,"lng":6.172928,"street":"Noord Buitensingel","number":"3","zipcode":"5911 EL","city":"Venlo","phone_number":"+31 77 351 5777","rating":3.8},{"id":302,"name":"Coffeeshop Paradox Weert","url_name":"\/nl\/in\/weert\/coffeeshop-paradox-weert","lat":51.249462,"lng":5.699569,"street":"Parallelweg","number":"101","zipcode":"6001 HM","city":"Weert","phone_number":"+31 495 664 061","rating":4.4},{"id":303,"name":"Huzur 33","url_name":"\/nl\/in\/venlo\/huzur-33","lat":51.364971,"lng":6.167758,"street":"Sloterbeekstraat","number":"33","zipcode":"5912 GT","city":"Venlo","phone_number":"+31 77 352 0832","rating":3.9},{"id":306,"name":"Coffeeshop Missouri","url_name":"\/nl\/in\/maastricht\/coffeeshop-missouri","lat":50.847237,"lng":5.700386,"street":"Hoogbrugstraat","number":"31-1","zipcode":"6221 CN","city":"Maastricht","phone_number":"+31 43 321 1866","rating":4.3},{"id":307,"name":"Kosbor","url_name":"\/nl\/in\/maastricht\/kosbor","lat":50.852665,"lng":5.693094,"street":"Kleine Gracht","number":"3","zipcode":"6211 CA","city":"Maastricht","phone_number":"+31 43 325 3549","rating":4.7},{"id":311,"name":"Coffeeshop Club 69","url_name":"\/nl\/in\/maastricht\/coffeeshop-club-69","lat":50.849869,"lng":5.685833,"street":"Grote Gracht","number":"97","zipcode":"6211 SV","city":"Maastricht","phone_number":"+31 43 851 2729","rating":4.3},{"id":314,"name":"Stadskoffiehuis De Hobbit","url_name":"\/nl\/in\/weert\/stadskoffiehuis-de-hobbit","lat":51.255047,"lng":5.706238,"street":"Beekstraat","number":"50","zipcode":"6001 GJ","city":"Weert","phone_number":"+31 495 541 120","rating":4.1},{"id":315,"name":"Coffeeshop Happy Days","url_name":"\/nl\/in\/hoensbroek\/coffeeshop-happy-days","lat":50.927685,"lng":5.939853,"street":"Akerstraat Noord","number":"220","zipcode":"6431 HT","city":"Hoensbroek","phone_number":"+31 45 522 4971","rating":4.2},{"id":316,"name":"Coffeeshop Twins","url_name":"\/nl\/in\/heerlen\/capricorn-coffee-shop","lat":50.888332,"lng":5.975379,"street":"Honigmannstraat","number":"49","zipcode":"6411 LJ","city":"Heerlen","phone_number":"+31 45 303 0094","rating":3.8},{"id":319,"name":"Club 88 B.V.","url_name":"\/nl\/in\/geleen\/club-88-bv","lat":50.966362,"lng":5.826312,"street":"Rijksweg Zuid","number":"82A","zipcode":"6161 BP","city":"Geleen","phone_number":"+31 46 475 7797","rating":4},{"id":320,"name":"Genesis","url_name":"\/nl\/in\/geleen\/genesis","lat":50.965988,"lng":5.825885,"street":"Rijksweg Zuid","number":"88","zipcode":"6161 BR","city":"Geleen","phone_number":"+31 46 475 5829","rating":4},{"id":321,"name":"Rasta Fari Boni","url_name":"\/nl\/in\/maastricht\/rasta-fari-boni","lat":50.846325,"lng":5.692415,"street":"Stenenbrug","number":"7","zipcode":"6211 HP","city":"Maastricht","phone_number":"+31 43 325 6448","rating":4.2},{"id":322,"name":"Down Under","url_name":"\/nl\/in\/kerkrade\/down-under","lat":50.863594,"lng":6.053527,"street":"Hammolenweg","number":"15","zipcode":"6466 XT","city":"Kerkrade","phone_number":"+31 45 546 3003","rating":4.2},{"id":323,"name":"Skunk Sittard","url_name":"\/nl\/in\/sittard\/skunk-sittard","lat":51.002117,"lng":5.859861,"street":"Stationsstraat","number":"29","zipcode":"6131 AS","city":"Sittard","phone_number":"+31 46 452 0454","rating":3.3},{"id":324,"name":"Coffeeshop Nobody\u2019s Place","url_name":"\/nl\/in\/venlo\/coffeeshop-nobodys-place","lat":51.366032,"lng":6.16727,"street":"Rodestraat","number":"2","zipcode":"5912 GS","city":"Venlo","phone_number":"","rating":4.2},{"id":325,"name":"Coffeeshop Smoky","url_name":"\/nl\/in\/maastricht\/coffeeshop-smoky","lat":50.852966,"lng":5.694745,"street":"Maaspromenade","number":"13A01","zipcode":"6211 HS","city":"Maastricht","phone_number":"","rating":3.9},{"id":326,"name":"Black Widow B.V.","url_name":"\/nl\/in\/maastricht\/black-widow-bv","lat":50.862473,"lng":5.688484,"street":"Bosscherweg","number":"165","zipcode":"6219 AA","city":"Maastricht","phone_number":"","rating":4.2},{"id":327,"name":"Maxcy's Coffeeshop","url_name":"\/nl\/in\/maastricht\/maxcys-coffeeshop","lat":50.848663,"lng":5.698098,"street":"Rechtstraat","number":"60-A","zipcode":"6221 EK","city":"Maastricht","phone_number":"+31 43 321 7291","rating":4.2},{"id":330,"name":"Fantasia Poolhouse","url_name":"\/nl\/in\/maastricht\/fantasia-poolhouse","lat":50.849205,"lng":5.676843,"street":"Sint Annalaan","number":"3-A","zipcode":"6214 AA","city":"Maastricht","phone_number":"+31 43 325 8224","rating":4.4},{"id":334,"name":"Yanks Coffee Shop","url_name":"\/nl\/in\/zandvoort\/yanks-coffee-shop","lat":52.372604,"lng":4.527571,"street":"Dorpsplein","number":"2","zipcode":"2042 JK","city":"Zandvoort","phone_number":"+31 23 571 9299","rating":4.8},{"id":335,"name":"Galerie CoffeeShop YoYo","url_name":"\/nl\/in\/amsterdam\/galerie-coffeeshop-yoyo","lat":52.356365,"lng":4.903132,"street":"Tweede Jan van der Heijdenstraat","number":"79","zipcode":"1074 XS","city":"Amsterdam","phone_number":"+31 20 233 9800","rating":4.8},{"id":337,"name":"Prix d'Ami","url_name":"\/nl\/in\/amsterdam\/prix-dami","lat":52.376869,"lng":4.897146,"street":"Haringpakkerssteeg","number":"3","zipcode":"1012 LR","city":"Amsterdam","phone_number":"","rating":4.4},{"id":338,"name":"The Grass Company Piusstraat","url_name":"\/nl\/in\/tilburg\/the-grass-company-piusstraat","lat":51.550426,"lng":5.088698,"street":"Piusstraat","number":"124","zipcode":"5021 JC","city":"Tilburg","phone_number":"+31 13 544 1589","rating":4.3},{"id":342,"name":"Koffieshop Sultan","url_name":"\/nl\/in\/rotterdam\/koffieshop-sultan","lat":51.889835,"lng":4.474341,"street":"Eksterstraat","number":"16","zipcode":"3083 XB","city":"Rotterdam","phone_number":"+31 10 480 8904","rating":4.5},{"id":346,"name":"Speak Easy","url_name":"\/nl\/in\/arnhem\/speak-easy","lat":51.981884,"lng":5.903929,"street":"Varkensstraat","number":"3","zipcode":"6811 GM","city":"Arnhem","phone_number":"+31 26 443 6252","rating":4.2},{"id":347,"name":"Coffeeshop Liberty","url_name":"\/nl\/in\/zutphen\/coffeeshop-liberty","lat":52.144459,"lng":6.197163,"street":"Nieuwstad","number":"49","zipcode":"7201 NL","city":"Zutphen","phone_number":"+31 6 27075216","rating":4.4},{"id":348,"name":"High & Low","url_name":"\/nl\/in\/utrecht\/high-low","lat":52.083633,"lng":5.109585,"street":"Croeselaan","number":"213","zipcode":"3521 BN","city":"Utrecht","phone_number":"+31 30 268 9222","rating":4.2},{"id":349,"name":"Exotic","url_name":"\/nl\/in\/de-bilt\/exotic","lat":52.104652,"lng":5.183281,"street":"Burgemeester de Withstraat","number":"5-A","zipcode":"3732 EH","city":"De Bilt","phone_number":"+31 30 221 0624","rating":3.5},{"id":350,"name":"Coffeeshop 208","url_name":"\/nl\/in\/utrecht\/coffeeshop-208","lat":52.088863,"lng":5.121644,"street":"Oudegracht","number":"208","zipcode":"3511 NR","city":"Utrecht","phone_number":"","rating":3.7},{"id":352,"name":"Coffeeshop The Edge","url_name":"\/nl\/in\/enschede\/coffeeshop-the-edge","lat":52.221458,"lng":6.897177,"street":"Noorderhagen","number":"56","zipcode":"7511 EM","city":"Enschede","phone_number":"+31 53 431 1453","rating":3.7},{"id":353,"name":"Coffeeshop Sahara","url_name":"\/nl\/in\/enschede\/coffeeshop-sahara-1","lat":52.221333,"lng":6.894728,"street":"Stadsgravenstraat","number":"18","zipcode":"7511 ES","city":"Enschede","phone_number":"+31 53 430 2192","rating":3.9},{"id":357,"name":"Coffeeshop Miami","url_name":"\/nl\/in\/leeuwarden\/coffeeshop-miami-2","lat":53.201969,"lng":5.799552,"street":"Korfmakersstraat","number":"5","zipcode":"8911 LA","city":"Leeuwarden","phone_number":"+31 58 215 7757","rating":4.5},{"id":358,"name":"Zero Zero Coffeeshop","url_name":"\/nl\/in\/alkmaar\/zero-zero-coffeeshop","lat":52.628757,"lng":4.751958,"street":"Laat","number":"32","zipcode":"1811 EJ","city":"Alkmaar","phone_number":"+31 72 531 4557","rating":4.3},{"id":359,"name":"Stepping Out","url_name":"\/nl\/in\/alkmaar\/stepping-out","lat":52.630314,"lng":4.742724,"street":"Ritsevoort","number":"30","zipcode":"1811 DP","city":"Alkmaar","phone_number":"+31 72 512 3343","rating":4.3},{"id":360,"name":"Roxanne Schagen B.V.","url_name":"\/nl\/in\/schagen\/roxanne-schagen-bv","lat":52.786942,"lng":4.799568,"street":"Laan","number":"5","zipcode":"1741 EA","city":"Schagen","phone_number":"","rating":4.1},{"id":361,"name":"Stepping Inn","url_name":"\/nl\/in\/heerhugowaard\/stepping-inn","lat":52.670078,"lng":4.844558,"street":"Raadhuisstraat","number":"12","zipcode":"1701 EK","city":"Heerhugowaard","phone_number":"+31 72 572 5965","rating":3.9},{"id":371,"name":"Katsu Coffeeshop","url_name":"\/nl\/in\/amsterdam\/katsu-coffeeshop","lat":52.354805,"lng":4.893281,"street":"Eerste van der Helststraat","number":"70","zipcode":"1072 NZ","city":"Amsterdam","phone_number":"+31 20 675 2617","rating":4.6},{"id":372,"name":"Green House Namaste Coffeeshop","url_name":"\/nl\/in\/amsterdam\/green-house-namaste-coffeeshop","lat":52.366646,"lng":4.902194,"street":"Waterlooplein","number":"345","zipcode":"1011 PG","city":"Amsterdam","phone_number":"+31 20 716 3834","rating":4.4},{"id":374,"name":"Coffeeshop Pacific","url_name":"\/nl\/in\/amsterdam\/coffeeshop-pacific","lat":52.353077,"lng":4.884686,"street":"Balthasar Floriszstraat","number":"10","zipcode":"1071 VC","city":"Amsterdam","phone_number":"+31 20 671 0318","rating":4.1},{"id":375,"name":"Coffeeshop Headlines","url_name":"\/nl\/in\/zaandam\/coffeeshop-headlines","lat":52.439274,"lng":4.822258,"street":"Rozengracht","number":"90","zipcode":"1506 SE","city":"Zaandam","phone_number":"+31 75 202 5638","rating":4.1},{"id":376,"name":"Greenworld Pablo Picasso","url_name":"\/nl\/in\/amsterdam\/greenworld-pablo-picasso","lat":52.38007,"lng":4.89287,"street":"Haarlemmerstraat","number":"44","zipcode":"1013 ES","city":"Amsterdam","phone_number":"+31 20 427 6739","rating":4.5},{"id":377,"name":"Coffeeshop Bagheera","url_name":"\/nl\/in\/amsterdam\/coffeeshop-bagheera","lat":52.370041,"lng":4.89743,"street":"Kloveniersburgwal","number":"60","zipcode":"1012 CX","city":"Amsterdam","phone_number":"+31 20 627 0384","rating":4.5},{"id":378,"name":"Koffiesjop De Bovenstad","url_name":"\/nl\/in\/gorinchem\/koffiesjop-de-bovenstad","lat":51.829865,"lng":4.979003,"street":"Burgstraat","number":"47","zipcode":"4201 AB","city":"Gorinchem","phone_number":"+31 183 631 990","rating":4.7},{"id":385,"name":"The Grass Company Emmaplein","url_name":"\/nl\/in\/s-hertogenbosch\/the-grass-company-emmaplein","lat":51.693333,"lng":5.296923,"street":"Emmaplein","number":"24-A","zipcode":"5211 VL","city":"'s-Hertogenbosch","phone_number":"+31 73 614 9643","rating":3.9},{"id":386,"name":"Happy Days Coffeeshop","url_name":"\/nl\/in\/hengelo\/happy-days-coffeeshop","lat":52.264187,"lng":6.787738,"street":"Emmaweg","number":"8","zipcode":"7551 BH","city":"Hengelo","phone_number":"+31 74 242 2441","rating":4.6},{"id":388,"name":"Koffiehuis Reykjavik","url_name":"\/nl\/in\/groningen\/koffiehuis-reykjavik","lat":53.221619,"lng":6.564912,"street":"Spilsluizen","number":"6","zipcode":"9712 NS","city":"Groningen","phone_number":"+31 50 312 6262","rating":4.5},{"id":391,"name":"Koffieshop High Time","url_name":"\/nl\/in\/alkmaar\/koffieshop-high-time","lat":52.637344,"lng":4.740986,"street":"Spoorstraat","number":"99","zipcode":"1815 BJ","city":"Alkmaar","phone_number":"+31 72 515 1999","rating":3.8},{"id":396,"name":"Super Fly Coffeeshop","url_name":"\/nl\/in\/hoofddorp\/super-fly-coffeeshop","lat":52.307171,"lng":4.69055,"street":"Kruisweg","number":"1043","zipcode":"2131 CS","city":"Hoofddorp","phone_number":"+31 23 555 6945","rating":4.6},{"id":397,"name":"Fly High","url_name":"\/nl\/in\/den-haag\/fly-high","lat":52.063183,"lng":4.331362,"street":"Rijswijkseweg","number":"229","zipcode":"2516 HD","city":"Den Haag","phone_number":"+31 6 86887343","rating":4.1},{"id":398,"name":"Coffeeshop De Bommel","url_name":"\/nl\/in\/amsterdam\/coffeeshop-de-bommel","lat":52.368877,"lng":4.853644,"street":"Balboastraat","number":"19","zipcode":"1057 VT","city":"Amsterdam","phone_number":"","rating":4.7},{"id":399,"name":"The Store Coffeeshop","url_name":"\/nl\/in\/amsterdam\/the-store-coffeeshop","lat":52.379036,"lng":4.893769,"street":"Singel","number":"14","zipcode":"1013 GA","city":"Amsterdam","phone_number":"+31 20 626 3900","rating":4.5},{"id":402,"name":"De Huyskamer","url_name":"\/nl\/in\/rotterdam\/de-huyskamer","lat":51.933727,"lng":4.481304,"street":"1e Pijnackerstraat","number":"118-A","zipcode":"3035 GW","city":"Rotterdam","phone_number":"+31 10 467 4146","rating":3.9},{"id":403,"name":"Shiva","url_name":"\/nl\/in\/tilburg\/shiva","lat":51.566444,"lng":5.095262,"street":"Koestraat","number":"12","zipcode":"5014 ED","city":"Tilburg","phone_number":"+31 13 542 1616","rating":4.4},{"id":405,"name":"Coffeeshop Coffee & Dreams Lelystad","url_name":"\/nl\/in\/lelystad\/coffeeshop-coffee-dreams-lelystad","lat":52.509274,"lng":5.473084,"street":"Stationsweg","number":"21","zipcode":"8232 DN","city":"Lelystad","phone_number":"+31 6 27479030","rating":3.3},{"id":407,"name":"Noon","url_name":"\/nl\/in\/amsterdam\/noon","lat":52.361725,"lng":4.886114,"street":"Zieseniskade","number":"22","zipcode":"1017 RT","city":"Amsterdam","phone_number":"","rating":4.7},{"id":409,"name":"Coffeeshop Solo","url_name":"\/nl\/in\/amsterdam\/coffeeshop-solo","lat":52.371864,"lng":4.902661,"street":"Korte Koningsstraat","number":"2","zipcode":"1011 GA","city":"Amsterdam","phone_number":"+31 20 420 0428","rating":4.7},{"id":410,"name":"Coffeeshop Plan B","url_name":"\/nl\/in\/goes\/coffeeshop-plan-b","lat":51.504539,"lng":3.889853,"street":"Grote Markt","number":"7","zipcode":"4461 AH","city":"Goes","phone_number":"+31 113 226 661","rating":4},{"id":411,"name":"Coffeeshop Best Friends - East","url_name":"\/nl\/in\/amsterdam\/coffeeshop-best-friends-east","lat":52.36512,"lng":4.939744,"street":"Niasstraat","number":"1","zipcode":"1095 TS","city":"Amsterdam","phone_number":"+31 20 362 3654","rating":4.4},{"id":412,"name":"Coffeeshop El Guapo Amsterdam Holland","url_name":"\/nl\/in\/amsterdam\/coffeeshop-el-guapo-amsterdam-holland","lat":52.37542,"lng":4.893595,"street":"Nieuwe Nieuwstraat","number":"32HS","zipcode":"1012 NH","city":"Amsterdam","phone_number":"","rating":4.7},{"id":413,"name":"De Muze","url_name":"\/nl\/in\/tilburg\/de-muze","lat":51.557526,"lng":5.085608,"street":"Tuinstraat","number":"43","zipcode":"5038 DA","city":"Tilburg","phone_number":"+31 13 535 0013","rating":4.4},{"id":416,"name":"Coffeeshop Al Hoceima","url_name":"\/nl\/in\/veenendaal\/coffeeshop-al-hoceima","lat":52.025585,"lng":5.560624,"street":"Schrijverspark","number":"81","zipcode":"3901 PD","city":"Veenendaal","phone_number":"+31 318 540 726","rating":4.2},{"id":417,"name":"De Sjamaan Smartshop Arnhem","url_name":"\/nl\/in\/arnhem\/de-sjamaan-smartshop-arnhem","lat":51.982971,"lng":5.909328,"street":"Bovenbeekstraat","number":"3","zipcode":"6811 CV","city":"Arnhem","phone_number":"+31 26 445 6627","rating":4.6},{"id":421,"name":"Coffeeshop Bebop","url_name":"\/nl\/in\/leiden\/coffeeshop-bebop","lat":52.158916,"lng":4.488872,"street":"Diefsteeg","number":"3","zipcode":"2311 TS","city":"Leiden","phone_number":"+31 71 512 0333","rating":4.4},{"id":422,"name":"Boerejongens Coffeeshop West Amsterdam","url_name":"\/nl\/in\/amsterdam\/boerejongens-coffeeshop-west-amsterdam","lat":52.362316,"lng":4.857531,"street":"Baarsjesweg","number":"239","zipcode":"1058 AA","city":"Amsterdam","phone_number":"+31 20 810 0025","rating":4.6},{"id":423,"name":"Boerejongens Coffeeshop Centre","url_name":"\/nl\/in\/amsterdam\/boerejongens-coffeeshop-centre","lat":52.364872,"lng":4.898028,"street":"Utrechtsestraat","number":"21","zipcode":"1017 VH","city":"Amsterdam","phone_number":"+31 20 447 3557","rating":4.6},{"id":425,"name":"Millennium Coffeeshop","url_name":"\/nl\/in\/amsterdam\/millennium-coffeeshop","lat":52.367504,"lng":4.864127,"street":"Jan Hanzenstraat","number":"109","zipcode":"1053 SN","city":"Amsterdam","phone_number":"","rating":4.2},{"id":426,"name":"Hunters Coffeeshop","url_name":"\/nl\/in\/amsterdam\/hunters-coffeeshop","lat":52.365486,"lng":4.897535,"street":"Utrechtsestraat","number":"14","zipcode":"1017 VN","city":"Amsterdam","phone_number":"","rating":4.4},{"id":427,"name":"Basjoe Coffee Shop","url_name":"\/nl\/in\/amsterdam\/basjoe-coffee-shop","lat":52.369999,"lng":4.897349,"street":"Kloveniersburgwal","number":"62","zipcode":"1012 CX","city":"Amsterdam","phone_number":"+31 20 627 3858","rating":4.2},{"id":428,"name":"Hunters Coffeeshop","url_name":"\/nl\/in\/amsterdam\/hunters-coffeeshop-1","lat":52.369995,"lng":4.849044,"street":"Orteliusstraat","number":"193","zipcode":"1056 NP","city":"Amsterdam","phone_number":"+31 20 489 3929","rating":4.2},{"id":429,"name":"Coffeeshop D & L","url_name":"\/nl\/in\/amsterdam\/coffeeshop-d-l","lat":52.357246,"lng":4.901309,"street":"Govert Flinckstraat","number":"323","zipcode":"1074 CB","city":"Amsterdam","phone_number":"+31 6 11253599","rating":4.5},{"id":430,"name":"Coffeeshop Toeda","url_name":"\/nl\/in\/rotterdam\/coffeeshop-toeda","lat":51.92374,"lng":4.507902,"street":"Chris Bennekerslaan","number":"47","zipcode":"3061 EE","city":"Rotterdam","phone_number":"+31 10 404 7536","rating":4},{"id":431,"name":"Rockland Coffeeshop","url_name":"\/nl\/in\/amsterdam\/rockland-coffeeshop","lat":52.373421,"lng":4.888382,"street":"Raadhuisstraat","number":"101","zipcode":"1016 DE","city":"Amsterdam","phone_number":"","rating":4.3},{"id":432,"name":"Coffeeshop Blue Sea","url_name":"\/nl\/in\/amsterdam\/coffeeshop-blue-sea","lat":52.354599,"lng":4.901662,"street":"Van Woustraat","number":"87","zipcode":"1074 AE","city":"Amsterdam","phone_number":"+31 20 676 1991","rating":4.2},{"id":433,"name":"Coffeeshop De Groene Gaper","url_name":"\/nl\/in\/hoofddorp\/coffeeshop-de-groene-gaper","lat":52.311897,"lng":4.694709,"street":"Graftermeerstraat","number":"10","zipcode":"2131 AC","city":"Hoofddorp","phone_number":"+31 23 563 2928","rating":4.5},{"id":437,"name":"Sensemillia CoffeeShop","url_name":"\/nl\/in\/amsterdam\/sensemillia-coffeeshop","lat":52.360203,"lng":4.80791,"street":"Meer en Vaart","number":"177B","zipcode":"1068 LA","city":"Amsterdam","phone_number":"+31 20 619 8846","rating":4.4},{"id":438,"name":"Coffeeshop Vondel","url_name":"\/nl\/in\/amsterdam\/coffeeshop-vondel","lat":52.358578,"lng":4.859297,"street":"Overtoom","number":"451HS","zipcode":"1054 KH","city":"Amsterdam","phone_number":"+31 20 233 2264","rating":4.4},{"id":439,"name":"Coffeeshop De Kade","url_name":"\/nl\/in\/amsterdam\/coffeeshop-de-kade","lat":52.343525,"lng":4.864276,"street":"Stadionkade","number":"107","zipcode":"1076 BN","city":"Amsterdam","phone_number":"+31 6 23305276","rating":4.7},{"id":440,"name":"Coffeeshop De Prijs","url_name":"\/nl\/in\/amsterdam\/coffeeshop-de-prijs","lat":52.357903,"lng":4.854034,"street":"Surinamestraat","number":"7","zipcode":"1058 GJ","city":"Amsterdam","phone_number":"+31 20 669 0620","rating":4.3},{"id":441,"name":"Coffeeshop Mediterran\u00e9","url_name":"\/nl\/in\/amsterdam\/coffeeshop-mediterran","lat":52.37561,"lng":4.891581,"street":"Spuistraat","number":"80","zipcode":"1012 TX","city":"Amsterdam","phone_number":"+31 20 620 0140","rating":4.5},{"id":442,"name":"The African Blackstar Coffeeshop","url_name":"\/nl\/in\/amsterdam\/the-african-blackstar-coffeeshop","lat":52.373734,"lng":4.882561,"street":"Rozengracht","number":"1-A","zipcode":"1016 LP","city":"Amsterdam","phone_number":"+31 20 626 9469","rating":4.5},{"id":443,"name":"Coffeeshop 1eHulp","url_name":"\/nl\/in\/amsterdam\/coffeeshop-1ehulp","lat":52.371567,"lng":4.875834,"street":"Marnixstraat","number":"194","zipcode":"1016 TJ","city":"Amsterdam","phone_number":"+31 20 427 0712","rating":4.5},{"id":450,"name":"Hunters Coffeeshop\/Bros","url_name":"\/nl\/in\/amsterdam\/hunters-coffeeshopbros","lat":52.392303,"lng":4.956182,"street":"Waterlandplein","number":"7","zipcode":"1024 LL","city":"Amsterdam","phone_number":"","rating":3.9},{"id":451,"name":"Green House United Coffeeshop","url_name":"\/nl\/in\/amsterdam\/green-house-united-coffeeshop","lat":52.380306,"lng":4.892181,"street":"Haarlemmerstraat","number":"64","zipcode":"1013 ET","city":"Amsterdam","phone_number":"+31 20 716 3834","rating":4.6},{"id":452,"name":"The Bulldog Coffeeshop The Port 26","url_name":"\/nl\/in\/amsterdam\/the-bulldog-coffeeshop-the-port-26","lat":52.405388,"lng":4.857991,"street":"Coenhavenweg","number":"26","zipcode":"1013 BL","city":"Amsterdam","phone_number":"+31 20 475 1827","rating":4.5},{"id":453,"name":"The Plug Coffeeshop","url_name":"\/nl\/in\/amsterdam\/the-plug-coffeeshop","lat":52.375134,"lng":4.891611,"street":"Nieuwezijds Voorburgwal","number":"132","zipcode":"1012 SH","city":"Amsterdam","phone_number":"+31 20 626 1295","rating":4.4},{"id":454,"name":"Maximillian Coffeeshop","url_name":"\/nl\/in\/haarlem\/maximillian-coffeeshop","lat":52.379925,"lng":4.631169,"street":"Barrevoetestraat","number":"23","zipcode":"2011 WN","city":"Haarlem","phone_number":"+31 23 844 6512","rating":4.4},{"id":455,"name":"Coffeeshop Regine","url_name":"\/nl\/in\/haarlem\/coffeeshop-regine","lat":52.381531,"lng":4.631768,"street":"Gedempte Oude Gracht","number":"28","zipcode":"2011 GR","city":"Haarlem","phone_number":"+31 23 542 4246","rating":4.5},{"id":456,"name":"Coffeeshop Maximillian","url_name":"\/nl\/in\/haarlem\/coffeeshop-maximillian-1","lat":52.378204,"lng":4.635848,"street":"Gedempte Oude Gracht","number":"123","zipcode":"2011 GP","city":"Haarlem","phone_number":"+31 23 532 6200","rating":4.7},{"id":457,"name":"Coffeeshop Zuiderzee","url_name":"\/nl\/in\/hoorn\/coffeeshop-zuiderzee","lat":52.642937,"lng":5.052745,"street":"Dubbele Buurt","number":"24","zipcode":"1621 JW","city":"Hoorn","phone_number":"+31 229 277 512","rating":4.4},{"id":460,"name":"Greenhouse Effect Coffeeshop","url_name":"\/nl\/in\/amsterdam\/greenhouse-effect-coffeeshop","lat":52.372849,"lng":4.899859,"street":"Nieuwmarkt","number":"14","zipcode":"1012 CR","city":"Amsterdam","phone_number":"+31 20 427 7878","rating":4.4},{"id":462,"name":"Coffeeshop Notos","url_name":"\/nl\/in\/leerdam\/coffeeshop-notos","lat":51.890701,"lng":5.09464,"street":"Hoogstraat","number":"44","zipcode":"4141 BC","city":"Leerdam","phone_number":"+31 345 506 584","rating":4.4},{"id":464,"name":"Coffeeshop Boereschuurtje","url_name":"\/nl\/in\/den-haag\/coffeeshop-boereschuurtje","lat":52.063667,"lng":4.293928,"street":"Boerenstraat","number":"89-A","zipcode":"2572 HV","city":"Den Haag","phone_number":"+31 70 743 1144","rating":4.5},{"id":466,"name":"Coffeeshop El Marssa","url_name":"\/nl\/in\/amsterdam\/coffeeshop-el-marssa","lat":52.369007,"lng":4.859306,"street":"Witte de Withstraat","number":"106","zipcode":"1057 ZG","city":"Amsterdam","phone_number":"+31 20 683 1261","rating":4.5},{"id":467,"name":"The Internet Cafe Coffeeshop","url_name":"\/nl\/in\/amsterdam\/the-internet-cafe-coffeeshop","lat":52.36401,"lng":4.8838,"street":"Korte Leidsedwarsstraat","number":"77","zipcode":"1017 PW","city":"Amsterdam","phone_number":"+31 20 223 1319","rating":4.4},{"id":471,"name":"Coffeeshop Ruthless Amsterdam","url_name":"\/nl\/in\/amsterdam\/coffeeshop-ruthless-amsterdam","lat":52.365479,"lng":4.853389,"street":"Hoofdweg","number":"174","zipcode":"1057 DC","city":"Amsterdam","phone_number":"+31 20 412 3057","rating":4.4},{"id":474,"name":"Harbor View Cafe","url_name":"\/nl\/in\/gorinchem\/harbor-view-cafe","lat":51.828625,"lng":4.976927,"street":"Appeldijk","number":"45","zipcode":"4201 AG","city":"Gorinchem","phone_number":"+31 183 760 834","rating":4.3},{"id":478,"name":"Green House Pijp Coffeeshop","url_name":"\/nl\/in\/amsterdam\/green-house-pijp-coffeeshop","lat":52.352371,"lng":4.903424,"street":"Tolstraat","number":"91","zipcode":"1074 VG","city":"Amsterdam","phone_number":"+31 6 20529630","rating":4.3},{"id":479,"name":"Coffeeshop de Wolf","url_name":"\/nl\/in\/utrecht\/coffeeshop-de-wolf","lat":52.091629,"lng":5.08934,"street":"Laan van Nieuw Guinea","number":"63","zipcode":"3531 JC","city":"Utrecht","phone_number":"","rating":4.2},{"id":480,"name":"Coffeeshop High Society","url_name":"\/nl\/in\/leiden\/coffeeshop-high-society","lat":52.163025,"lng":4.488004,"street":"Lange Scheistraat","number":"5","zipcode":"2312 CR","city":"Leiden","phone_number":"+31 71 514 8444","rating":4.5},{"id":481,"name":"Coffeeshop Mr. Jansen","url_name":"\/nl\/in\/den-haag\/coffeeshop-mr-jansen","lat":52.08007,"lng":4.302068,"street":"Bilderdijkstraat","number":"8-A","zipcode":"2513 CP","city":"Den Haag","phone_number":"+31 70 213 6102","rating":4.1},{"id":482,"name":"Barney's Coffeeshop Amsterdam","url_name":"\/nl\/in\/amsterdam\/barneys-coffeeshop-amsterdam","lat":52.380688,"lng":4.890855,"street":"Haarlemmerstraat","number":"102","zipcode":"1013 EW","city":"Amsterdam","phone_number":"+31 20 625 9761","rating":4.6},{"id":484,"name":"Coffeeshop Willie Wortel Sativa","url_name":"\/nl\/in\/haarlem\/coffeeshop-willie-wortel-sativa","lat":52.386906,"lng":4.636518,"street":"Kruisweg","number":"46","zipcode":"2011 LD","city":"Haarlem","phone_number":"+31 23 531 7770","rating":4.4},{"id":485,"name":"420 CAFE","url_name":"\/nl\/in\/amsterdam\/420-cafe","lat":52.375954,"lng":4.895914,"street":"Oudebrugsteeg","number":"27","zipcode":"1012 JN","city":"Amsterdam","phone_number":"+31 20 623 4848","rating":4.5},{"id":486,"name":"Coffeeshop Dreamland","url_name":"\/nl\/in\/haarlem\/coffeeshop-dreamland","lat":52.381367,"lng":4.621692,"street":"Brouwersplein","number":"44","zipcode":"2013 PH","city":"Haarlem","phone_number":"+31 6 44307323","rating":4},{"id":490,"name":"Cannabis Shop Willie Wortel Indica","url_name":"\/nl\/in\/haarlem\/cannabis-shop-willie-wortel-indica","lat":52.38229,"lng":4.642794,"street":"Koudenhorn","number":"58","zipcode":"2011 JD","city":"Haarlem","phone_number":"+31 23 202 2270","rating":4.6},{"id":491,"name":"Coffeeshop Hunter's","url_name":"\/nl\/in\/haarlem\/coffeeshop-key-west","lat":52.392529,"lng":4.640566,"street":"Schoterweg","number":"66","zipcode":"2021 HP","city":"Haarlem","phone_number":"+31 23 525 9027","rating":4.5},{"id":492,"name":"Coffeeshop Birdy","url_name":"\/nl\/in\/haarlem\/coffeeshop-birdy","lat":52.391434,"lng":4.640525,"street":"Schoterweg","number":"19","zipcode":"2021 HZ","city":"Haarlem","phone_number":"+31 23 525 3822","rating":4.7},{"id":493,"name":"Coffeeshop Freedom","url_name":"\/nl\/in\/amsterdam\/coffeeshop-freedom","lat":52.382557,"lng":4.871182,"street":"Van Hogendorpstraat","number":"201","zipcode":"1051 CA","city":"Amsterdam","phone_number":"+31 20 686 8683","rating":4.6},{"id":495,"name":"Coffeeshop Hollywood","url_name":"\/nl\/in\/den-haag\/coffeeshop-hollywood","lat":52.061218,"lng":4.307904,"street":"Groenteweg","number":"134","zipcode":"2525 JZ","city":"Den Haag","phone_number":"+31 70 389 0742","rating":4.5},{"id":497,"name":"Barber Shop","url_name":"\/nl\/in\/hellevoetsluis\/barber-shop","lat":51.822765,"lng":4.130249,"street":"Kerkstraat","number":"24","zipcode":"3221 AG","city":"Hellevoetsluis","phone_number":"+31 181 740 004","rating":4.5},{"id":543,"name":"Coffeeshop Cobra","url_name":"\/nl\/in\/tiel\/coffeeshop-cobra-1","lat":51.885639,"lng":5.438311,"street":"Tolhuisstraat","number":"25","zipcode":"4001 LN","city":"Tiel","phone_number":"+31 6 22053182","rating":4.6},{"id":552,"name":"Coffee Friendship","url_name":"\/nl\/in\/gouda\/coffee-friendship","lat":52.012383,"lng":4.713067,"street":"Cappenersteeg","number":"30","zipcode":"2801 XP","city":"Gouda","phone_number":"+31 182 585 172","rating":4.2},{"id":553,"name":"Coffeeshop Ahllen","url_name":"\/nl\/in\/rotterdam\/coffeeshop-ahllen","lat":51.912533,"lng":4.451981,"street":"Heemraadstraat","number":"37","zipcode":"3023 VC","city":"Rotterdam","phone_number":"+31 10 261 3551","rating":4.1},{"id":554,"name":"Coffeeshop 'Kings-Town'","url_name":"\/nl\/in\/rotterdam\/coffeeshop-kings-town","lat":51.896946,"lng":4.496533,"street":"Sint-Andriesstraat","number":"20","zipcode":"3073 JB","city":"Rotterdam","phone_number":"+31 6 87126781","rating":4.2},{"id":555,"name":"Coffeeshop 't Geeltje","url_name":"\/nl\/in\/dordrecht\/coffeeshop-t-geeltje-1","lat":51.814362,"lng":4.674786,"street":"Sint Jorisweg","number":"20","zipcode":"3311 PL","city":"Dordrecht","phone_number":"+31 78 631 7006","rating":4.3},{"id":556,"name":"Coffeeshop Relax","url_name":"\/nl\/in\/tiel\/coffeeshop-relax-1","lat":51.887295,"lng":5.436549,"street":"Vleesstraat","number":"19","zipcode":"4001 BB","city":"Tiel","phone_number":"+31 344 627 346","rating":4.6},{"id":558,"name":"Coffeeshop Jupiter","url_name":"\/nl\/in\/culemborg\/coffeeshop-jupiter","lat":51.958492,"lng":5.224304,"street":"Kattenstraat","number":"4","zipcode":"4101 BM","city":"Culemborg","phone_number":"+31 6 51240514","rating":4.5},{"id":559,"name":"Coffeeshop NY","url_name":"\/nl\/in\/rotterdam\/coffeeshop-ny","lat":51.9021,"lng":4.502799,"street":"Paul Krugerstraat","number":"42","zipcode":"3072 TA","city":"Rotterdam","phone_number":"+31 10 485 7848","rating":4.7},{"id":576,"name":"Coffeeshop Dr Pleasure","url_name":"\/nl\/in\/deventer\/coffeeshop-dr-pleasure","lat":52.257687,"lng":6.166234,"street":"Brinkgreverweg","number":"70","zipcode":"7413 AD","city":"Deventer","phone_number":"","rating":4.4},{"id":579,"name":"CasaBlanca Koffieshop","url_name":"\/nl\/in\/eindhoven\/casablanca-koffieshop","lat":51.439777,"lng":5.467744,"street":"Sint Antoniusstraat","number":"1","zipcode":"5616 RT","city":"Eindhoven","phone_number":"+31 6 84743914","rating":4.1},{"id":582,"name":"Coffeeshop Blikken Deur","url_name":"\/nl\/in\/deventer\/coffeeshop-blikken-deur","lat":52.254921,"lng":6.153928,"street":"Nieuwstraat","number":"70","zipcode":"7411 LN","city":"Deventer","phone_number":"+31 6 17685016","rating":4.4},{"id":583,"name":"Coffeeshop Bazar","url_name":"\/nl\/in\/apeldoorn\/coffeeshop-bazar","lat":52.214588,"lng":5.963942,"street":"Marktstraat","number":"8","zipcode":"7311 LH","city":"Apeldoorn","phone_number":"+31 55 521 3030","rating":4.2},{"id":585,"name":"De Palm","url_name":"\/nl\/in\/apeldoorn\/de-palm","lat":52.212452,"lng":5.95383,"street":"Asselsestraat","number":"116-118","zipcode":"7311 ES","city":"Apeldoorn","phone_number":"+31 55 522 1149","rating":3.9},{"id":588,"name":"Diamond Coffeeshop","url_name":"\/nl\/in\/doetinchem\/diamond-coffeeshop","lat":51.967018,"lng":6.291489,"street":"Dr. Huber Noodtstraat","number":"16","zipcode":"7001 DW","city":"Doetinchem","phone_number":"+31 314 745 046","rating":3.8},{"id":589,"name":"Coffeeshop Flamingo","url_name":"\/nl\/in\/driebergen-rijsenburg\/coffeeshop-flamingo","lat":52.056339,"lng":5.293781,"street":"Traaij","number":"140","zipcode":"3971 GT","city":"Driebergen-Rijsenburg","phone_number":"+31 343 532 991","rating":4.2},{"id":590,"name":"Coffeeshop Lucky Luke","url_name":"\/nl\/in\/arnhem\/coffeeshop-lucky-luke","lat":51.986057,"lng":5.913845,"street":"Sonsbeeksingel","number":"91","zipcode":"6821 AC","city":"Arnhem","phone_number":"+31 26 351 9090","rating":4.3},{"id":611,"name":"Coffeeshop Mill","url_name":"\/nl\/in\/enschede\/coffeeshop-mill","lat":52.223274,"lng":6.899097,"street":"Oldenzaalsestraat","number":"103","zipcode":"7511 DZ","city":"Enschede","phone_number":"+31 6 13727650","rating":4.2},{"id":613,"name":"Coffeeshop Jamaica","url_name":"\/nl\/in\/nijmegen\/coffeeshop-jamaica","lat":51.843079,"lng":5.86276,"street":"Van Welderenstraat","number":"96","zipcode":"6511 LS","city":"Nijmegen","phone_number":"+31 6 57245208","rating":4.3},{"id":626,"name":"Coffeeshop Jemig the Pemig","url_name":"\/nl\/in\/almelo\/coffeeshop-jemig-the-pemig","lat":52.350628,"lng":6.663765,"street":"Bornerbroeksestraat","number":"28C","zipcode":"7607 KG","city":"Almelo","phone_number":"+31 546 538 110","rating":4},{"id":639,"name":"Coffeeshop Columbus Cannabisstore","url_name":"\/nl\/in\/harderwijk\/coffeeshop-columbus-cannabisstore","lat":52.349697,"lng":5.615149,"street":"Vijhestraat","number":"3","zipcode":"3841 CW","city":"Harderwijk","phone_number":"+31 341 701 103","rating":4.6},{"id":643,"name":"Soft-Shop De Driemaster","url_name":"\/nl\/in\/groningen\/soft-shop-de-driemaster","lat":53.218384,"lng":6.574546,"street":"Nieuweweg","number":"18","zipcode":"9711 TD","city":"Groningen","phone_number":"+31 50 314 2003","rating":4.1},{"id":657,"name":"Coffeeshop De Schavuit","url_name":"\/nl\/in\/groningen\/coffeeshop-de-schavuit","lat":53.218182,"lng":6.573474,"street":"Schuitendiep","number":"62","zipcode":"9711 RE","city":"Groningen","phone_number":"","rating":4.4},{"id":667,"name":"Coffeeshop TOV","url_name":"\/nl\/in\/veendam\/coffeeshop-tov","lat":53.103058,"lng":6.877964,"street":"Bocht Oosterdiep","number":"29","zipcode":"9641 JH","city":"Veendam","phone_number":"","rating":4.7},{"id":677,"name":"Heaven","url_name":"\/nl\/in\/sneek\/heaven","lat":53.028847,"lng":5.659869,"street":"Rienck Bockemakade","number":"3","zipcode":"8601 AC","city":"Sneek","phone_number":"+31 515 434 736","rating":4.5},{"id":692,"name":"Coffeeshop Koffiehuis de Zone","url_name":"\/nl\/in\/leeuwarden\/coffeeshop-koffiehuis-de-zone","lat":53.202187,"lng":5.798259,"street":"Poststraat","number":"37","zipcode":"8911 GX","city":"Leeuwarden","phone_number":"+31 58 213 0251","rating":4.6},{"id":698,"name":"Coffeeshop De Eenhoorn","url_name":"\/nl\/in\/leeuwarden\/coffeeshop-de-eenhoorn","lat":53.201618,"lng":5.793291,"street":"Nieuwesteeg","number":"3","zipcode":"8911 DT","city":"Leeuwarden","phone_number":"+31 58 216 4442","rating":4.5},{"id":711,"name":"Coffeeshop De Poort","url_name":"\/nl\/in\/enkhuizen\/coffeeshop-de-poort","lat":52.705338,"lng":5.293022,"street":"Verlaat","number":"5","zipcode":"1601 JW","city":"Enkhuizen","phone_number":"+31 228 313 850","rating":4.6},{"id":724,"name":"Roxanne Coffeeshop","url_name":"\/nl\/in\/schagen\/roxanne-coffeeshop","lat":52.78688,"lng":4.799604,"street":"Laan","number":"5","zipcode":"1741 EA","city":"Schagen","phone_number":"","rating":4.1},{"id":727,"name":"Aktama","url_name":"\/nl\/in\/den-helder\/aktama","lat":52.94614,"lng":4.768804,"street":"Industrieweg","number":"1B","zipcode":"1785 AG","city":"Den Helder","phone_number":"+31 223 785 865","rating":4.8},{"id":757,"name":"Coffeeshop Mississippi","url_name":"\/nl\/in\/maastricht\/coffeeshop-mississippi","lat":50.853294,"lng":5.694736,"street":"Maaspromenade","number":"11","zipcode":"6211 HS","city":"Maastricht","phone_number":"+31 45 303 0094","rating":4.3},{"id":758,"name":"Coffeeshop Mary Jane","url_name":"\/nl\/in\/maastricht\/coffeeshop-mary-jane","lat":50.847435,"lng":5.701959,"street":"Hoogbrugstraat","number":"4","zipcode":"6221 CR","city":"Maastricht","phone_number":"+31 43 852 9402","rating":4.6},{"id":761,"name":"The Roundabout","url_name":"\/nl\/in\/maastricht\/the-roundabout","lat":50.849678,"lng":5.678865,"street":"Brusselsestraat","number":"146","zipcode":"6211 PJ","city":"Maastricht","phone_number":"+31 43 855 2886","rating":4.3},{"id":764,"name":"Coffeeshop The Border","url_name":"\/nl\/in\/amsterdam\/coffeeshop-the-border","lat":52.322006,"lng":4.857127,"street":"Amstelveenseweg","number":"1160","zipcode":"1081 JW","city":"Amsterdam","phone_number":"+31 20 642 0681","rating":4.3},{"id":777,"name":"Promenade","url_name":"\/nl\/in\/hilversum\/promenade","lat":52.227364,"lng":5.176324,"street":"Naarderstraat","number":"11","zipcode":"1211 AH","city":"Hilversum","phone_number":"+31 35 623 6699","rating":4.5},{"id":780,"name":"Coffeeshop Lucky Luke","url_name":"\/nl\/in\/nijmegen\/coffeeshop-lucky-luke-1","lat":51.84325,"lng":5.861825,"street":"Tweede Walstraat","number":"161","zipcode":"6511 LT","city":"Nijmegen","phone_number":"","rating":4.2},{"id":786,"name":"Cyber \u200b\u200bShop Bulls","url_name":"\/nl\/in\/deventer\/cyber-shop-bulls","lat":52.254627,"lng":6.15868,"street":"Op de Keizer","number":"28","zipcode":"7411 TA","city":"Deventer","phone_number":"+31 570 610 991","rating":4.4},{"id":803,"name":"Coffeeshop Marrakech","url_name":"\/nl\/in\/dordrecht\/coffeeshop-marrakech","lat":51.813732,"lng":4.659873,"street":"Voorstraat","number":"475","zipcode":"3311 CV","city":"Dordrecht","phone_number":"+31 78 614 8762","rating":4.2},{"id":804,"name":"Coffeeshop Africa","url_name":"\/nl\/in\/tilburg\/coffeeshop-africa","lat":51.55312,"lng":5.090454,"street":"Koopvaardijstraat","number":"46","zipcode":"5017 BG","city":"Tilburg","phone_number":"+31 13 544 3388","rating":4.5},{"id":805,"name":"Coffeeshop Nieuw","url_name":"\/nl\/in\/amsterdam\/coffeeshop-nieuw","lat":52.366982,"lng":4.852862,"street":"Hoofdweg","number":"226","zipcode":"1057 DG","city":"Amsterdam","phone_number":"","rating":4.1},{"id":807,"name":"Coffeeshop de Muze Tilburg","url_name":"\/nl\/in\/tilburg\/coffeeshop-de-muze-tilburg","lat":51.557526,"lng":5.085608,"street":"Tuinstraat","number":"43","zipcode":"5038 DA","city":"Tilburg","phone_number":"+31 13 535 0013","rating":4.4},{"id":809,"name":"No Limit","url_name":"\/nl\/in\/den-haag\/no-limit","lat":52.080708,"lng":4.296251,"street":"Witte de Withstraat","number":"4, A","zipcode":"2518 CT","city":"Den Haag","phone_number":"+31 70 346 8454","rating":4.3},{"id":810,"name":"Boerejongens Coffeeshop BIJ Amsterdam","url_name":"\/nl\/in\/amsterdam\/boerejongens-coffeeshop-bij-amsterdam","lat":52.362064,"lng":4.855472,"street":"Bonairestraat","number":"78","zipcode":"1058 XL","city":"Amsterdam","phone_number":"+31 20 810 0025","rating":4.7},{"id":811,"name":"Coffeeshop New Times","url_name":"\/nl\/in\/amsterdam\/coffeeshop-new-times","lat":52.370571,"lng":4.888935,"street":"Spuistraat","number":"260","zipcode":"1012 VW","city":"Amsterdam","phone_number":"+31 6 26298782","rating":4.3},{"id":812,"name":"Coffeeshop Roxy","url_name":"\/nl\/in\/amsterdam\/coffeeshop-roxy","lat":52.356396,"lng":4.895594,"street":"Gerard Doustraat","number":"188","zipcode":"1073 XA","city":"Amsterdam","phone_number":"+31 6 86456322","rating":4.3},{"id":829,"name":"Atlas Caf\u00e9 Coffeeshop","url_name":"\/nl\/in\/amsterdam\/atlas-caf-coffeeshop","lat":52.398106,"lng":4.941353,"street":"Buikslotermeerplein","number":"389","zipcode":"1025 XE","city":"Amsterdam","phone_number":"+31 20 631 5100","rating":4.2},{"id":830,"name":"Hunters Coffeeshop \/ Branch","url_name":"\/nl\/in\/amsterdam\/hunters-coffeeshop-branch","lat":52.393738,"lng":4.912897,"street":"Papaverweg","number":"2","zipcode":"1032 KH","city":"Amsterdam","phone_number":"","rating":4.1},{"id":831,"name":"Funny People Coffeeshop","url_name":"\/nl\/in\/amsterdam\/funny-people-coffeeshop","lat":52.401958,"lng":4.898432,"street":"Tt. Vasumweg","number":"4","zipcode":"1033 SC","city":"Amsterdam","phone_number":"+31 20 362 1377","rating":4.6},{"id":838,"name":"Koffiehuis Rif","url_name":"\/nl\/in\/rotterdam\/koffiehuis-rif","lat":51.932987,"lng":4.497121,"street":"Tamboerstraat","number":"12B","zipcode":"3034 PV","city":"Rotterdam","phone_number":"+31 10 313 0887","rating":4},{"id":844,"name":"Level","url_name":"\/nl\/in\/tilburg\/level","lat":51.553871,"lng":5.07916,"street":"Sint Annaplein","number":"13","zipcode":"5038 TV","city":"Tilburg","phone_number":"+31 13 543 3183","rating":4.3},{"id":913,"name":"The Bulldog Mack","url_name":"\/nl\/in\/amsterdam\/the-bulldog-mack","lat":52.373253,"lng":4.897144,"street":"Oudezijds Voorburgwal","number":"132","zipcode":"1012 GH","city":"Amsterdam","phone_number":"+31 20 625 9864","rating":4.2},{"id":916,"name":"Coffeeshop Kashmir","url_name":"\/nl\/in\/amsterdam\/coffeeshop-kashmir","lat":52.364059,"lng":4.862976,"street":"Jan Pieter Heijestraat","number":"82","zipcode":"1053 GS","city":"Amsterdam","phone_number":"+31 20 618 0683","rating":4.1},{"id":950,"name":"Roots Coffeeshop","url_name":"\/nl\/in\/amsterdam\/roots-coffeeshop","lat":52.311684,"lng":4.948233,"street":"Hoekenrode","number":"14","zipcode":"1102 BR","city":"Amsterdam","phone_number":"+31 6 83385423","rating":3.9},{"id":971,"name":"Coffeeshop Central","url_name":"\/nl\/in\/amsterdam\/coffeeshop-central","lat":52.37672,"lng":4.901929,"street":"Prins Hendrikkade","number":"89","zipcode":"1012 AE","city":"Amsterdam","phone_number":"","rating":4.4},{"id":990,"name":"Coffeeshop De Bengel","url_name":"\/nl\/in\/wageningen\/coffeeshop-de-bengel","lat":51.972103,"lng":5.668215,"street":"Sportstraat","number":"26","zipcode":"6707 GH","city":"Wageningen","phone_number":"+31 317 417 576","rating":4.4},{"id":992,"name":"Boerejonjes","url_name":"\/nl\/in\/amsterdam\/boerejonjes","lat":52.362316,"lng":4.857548,"street":"Baarsjesweg","number":"239","zipcode":"1058 AA","city":"Amsterdam","phone_number":"+31 20 810 0025","rating":4.6},{"id":996,"name":"Coffeeshop The Future","url_name":"\/nl\/in\/delft\/coffeeshop-the-future","lat":52.010391,"lng":4.357559,"street":"Peperstraat","number":"8","zipcode":"2611 CH","city":"Delft","phone_number":"+31 15 214 7257","rating":3.8},{"id":998,"name":"Coffeeshop Meeting Point","url_name":"\/nl\/in\/rhenen\/coffeeshop-meeting-point","lat":51.958088,"lng":5.567049,"street":"Molenstraat","number":"10","zipcode":"3911 KL","city":"Rhenen","phone_number":"","rating":4.4},{"id":1104,"name":"Coffeeshop Aarden","url_name":"\/nl\/in\/vlissingen\/coffeeshop-aarden-1","lat":51.441589,"lng":3.57442,"street":"Nieuwstraat","number":"1","zipcode":"4381 CN","city":"Vlissingen","phone_number":"+31 118 431 043","rating":4.2},{"id":1113,"name":"Dampkring","url_name":"\/nl\/in\/amsterdam\/dampkring","lat":52.380138,"lng":4.892915,"street":"Haarlemmerstraat","number":"44","zipcode":"1013 ES","city":"Amsterdam","phone_number":"+31 20 427 6739","rating":4.5},{"id":1122,"name":"Kooi Coffeeshop","url_name":"\/nl\/in\/amsterdam\/kooi-coffeeshop","lat":52.366238,"lng":4.899431,"street":"Amstelstraat","number":"35","zipcode":"1017 DA","city":"Amsterdam","phone_number":"","rating":4.5},{"id":1153,"name":"Coffeeshop Slowmotion Hatigo B.V.","url_name":"\/nl\/in\/maastricht\/coffeeshop-slowmotion-hatigo-bv","lat":50.848858,"lng":5.704197,"street":"Bourgognestraat","number":"10 a","zipcode":"6221 BX","city":"Maastricht","phone_number":"+31 43 321 6643","rating":4.4},{"id":1154,"name":"Coffeeshop de Kroon","url_name":"\/nl\/in\/amsterdam\/coffeeshop-de-kroon","lat":52.375973,"lng":4.896015,"street":"Oudebrugsteeg","number":"26","zipcode":"1012 JP","city":"Amsterdam","phone_number":"+31 20 773 2532","rating":4.6},{"id":1198,"name":"The Sandman B.V.","url_name":"\/nl\/in\/haarlem\/the-sandman-bv","lat":52.376518,"lng":4.650318,"street":"Zomervaart","number":"154-ZW","zipcode":"2033 DC","city":"Haarlem","phone_number":"+31 23 540 2501","rating":4.4},{"id":1223,"name":"Coffeeshop Relaxed Leiden","url_name":"\/nl\/in\/leiden\/coffeeshop-relaxed-leiden","lat":52.161873,"lng":4.492482,"street":"Janvossensteeg","number":"6","zipcode":"2312 WE","city":"Leiden","phone_number":"+31 71 123 4567","rating":4.5},{"id":1271,"name":"Coffeeshop 1e Hulp","url_name":"\/nl\/in\/amsterdam\/coffeeshop-1e-hulp","lat":52.371574,"lng":4.875847,"street":"Marnixstraat","number":"194","zipcode":"1016 TJ","city":"Amsterdam","phone_number":"+31 20 427 0712","rating":4.5},{"id":1274,"name":"The Plug Utopia Coffeeshop","url_name":"\/nl\/in\/amsterdam\/the-plug-utopia-coffeeshop","lat":52.375099,"lng":4.891612,"street":"Nieuwezijds Voorburgwal","number":"132","zipcode":"1012 SH","city":"Amsterdam","phone_number":"","rating":4.4},{"id":1279,"name":"Club Animo Coffeeshop","url_name":"\/nl\/in\/gouda\/club-animo-coffeeshop","lat":52.008396,"lng":4.705593,"street":"Vest","number":"18","zipcode":"2801 VE","city":"Gouda","phone_number":"","rating":4.6},{"id":1288,"name":"Coffeeshop Bonne Ville","url_name":"\/nl\/in\/helmond\/coffeeshop-bonne-ville","lat":51.482471,"lng":5.666928,"street":"Wolfstraat","number":"124","zipcode":"5701 JH","city":"Helmond","phone_number":"","rating":3.7},{"id":1294,"name":"Coffeeshop Relax Zuid","url_name":"\/nl\/in\/amsterdam\/coffeeshop-relax-zuid","lat":52.348461,"lng":4.905601,"street":"Vechtstraat","number":"9HS","zipcode":"1078 RE","city":"Amsterdam","phone_number":"+31 20 238 4177","rating":4.8},{"id":1295,"name":"Coffeeshop Relax | Amsterdam Centrum","url_name":"\/nl\/in\/amsterdam\/coffeeshop-relax-amsterdam-centrum","lat":52.382195,"lng":4.887146,"street":"Binnen Oranjestraat","number":"9","zipcode":"1013 HZ","city":"Amsterdam","phone_number":"+31 20 331 1828","rating":4.7},{"id":1296,"name":"THE PLUG UTOPIA","url_name":"\/nl\/in\/amsterdam\/the-plug-utopia","lat":52.375099,"lng":4.891612,"street":"Nieuwezijds Voorburgwal","number":"132","zipcode":"1012 SH","city":"Amsterdam","phone_number":"","rating":4.4},{"id":1302,"name":"coffeeshop take a break","url_name":"\/nl\/in\/amersfoort\/coffeeshop-take-a-break","lat":52.178253,"lng":5.414116,"street":"Terminalweg","number":"11","zipcode":"3821 AJ","city":"Amersfoort","phone_number":"+31 33 785 3205","rating":4.6},{"id":1314,"name":"Coffeeshop de Pijp","url_name":"\/nl\/in\/zwolle\/coffeeshop-de-pijp","lat":52.515015,"lng":6.107918,"street":"Vechtstraat","number":"98","zipcode":"8021 AZ","city":"Zwolle","phone_number":"+31 38 785 9529","rating":4.7},{"id":1317,"name":"Coffeeshop Nogal Wiedes","url_name":"\/nl\/in\/amsterdam\/coffeeshop-nogal-wiedes","lat":52.370239,"lng":4.929895,"street":"Czaar Peterstraat","number":"122","zipcode":"1018 PV","city":"Amsterdam","phone_number":"+31 20 626 0448","rating":3.9},{"id":1319,"name":"Coffeeshop Indica","url_name":"\/nl\/in\/dordrecht\/coffeeshop-indica","lat":51.816151,"lng":4.665301,"street":"Vismarkt","number":"2","zipcode":"3311 BS","city":"Dordrecht","phone_number":"+31 6 22898720","rating":4.5},{"id":1322,"name":"Thunderbird","url_name":"\/nl\/in\/enschede\/thunderbird","lat":52.220718,"lng":6.899127,"street":"Wilhelminastraat","number":"3","zipcode":"7511 DM","city":"Enschede","phone_number":"+31 53 431 9836","rating":4.5},{"id":1342,"name":"Dizzy Duck","url_name":"\/nl\/in\/heerenveen\/dizzy-duck-2","lat":52.959404,"lng":5.922305,"street":"Gedempte Molenwijk","number":"4","zipcode":"8442 BG","city":"Heerenveen","phone_number":"+31 513 842 240","rating":4.4},{"id":1346,"name":"Coffeeshop Coffee & Dreams","url_name":"\/nl\/in\/almere\/coffeeshop-coffee-dreams","lat":52.374119,"lng":5.223051,"street":"Festivalplein","number":"19","zipcode":"1315 KL","city":"Almere","phone_number":"+31 36 529 8989","rating":4.1},{"id":1347,"name":"Anna Purmerend","url_name":"\/nl\/in\/purmerend\/anna-purmerend","lat":52.510792,"lng":4.945742,"street":"Gedempte Singelgracht","number":"19","zipcode":"1441 AN","city":"Purmerend","phone_number":"+31 299 438 886","rating":4.3},{"id":1354,"name":"Coffeeshop Het Ankertje","url_name":"\/nl\/in\/deventer\/coffeeshop-het-ankertje","lat":52.246368,"lng":6.16872,"street":"Mr. H.F. de Boerlaan","number":"167","zipcode":"7411 AH","city":"Deventer","phone_number":"","rating":4.2},{"id":1357,"name":"dampking","url_name":"\/nl\/in\/amsterdam\/dampking","lat":52.367752,"lng":4.890496,"street":"Handboogstraat","number":"29","zipcode":"1012 XM","city":"Amsterdam","phone_number":"+31 20 638 0705","rating":4.5},{"id":1382,"name":"Coffeeshop DE LOODS Amersfoort","url_name":"\/nl\/in\/amersfoort\/coffeeshop-de-loods-amersfoort","lat":52.1647,"lng":5.369752,"street":"Textielweg","number":"11","zipcode":"3812 RV","city":"Amersfoort","phone_number":"","rating":4.7},{"id":1404,"name":"Coffeeshop The Zoo","url_name":"\/nl\/in\/amersfoort\/coffeeshop-the-zoo-1","lat":52.157761,"lng":5.375586,"street":"Puntenburgerlaan","number":"72","zipcode":"3812 CG","city":"Amersfoort","phone_number":"+31 33 462 6864","rating":3.8},{"id":1429,"name":"The Crow","url_name":"\/nl\/in\/den-haag\/the-crow","lat":52.085041,"lng":4.313354,"street":"Hooikade","number":"7","zipcode":"2514 BH","city":"Den Haag","phone_number":"","rating":4.6},{"id":1452,"name":"Coffeeshop 156","url_name":"\/nl\/in\/amsterdam\/coffeeshop-156","lat":52.369656,"lng":4.852479,"street":"Hudsonstraat","number":"156","zipcode":"1057 ST","city":"Amsterdam","phone_number":"","rating":4.7},{"id":1466,"name":"Coffeeshop Espresso","url_name":"\/nl\/in\/mijdrecht\/coffeeshop-espresso","lat":52.208557,"lng":4.869783,"street":"Rondweg","number":"1B","zipcode":"3641 SC","city":"Mijdrecht","phone_number":"+31 297 257 723","rating":4.7},{"id":1467,"name":"Coffeeshop Eastwood","url_name":"\/nl\/in\/amsterdam\/coffeeshop-eastwood","lat":52.365154,"lng":4.927979,"street":"Pieter Vlamingstraat","number":"286","zipcode":"1093 DK","city":"Amsterdam","phone_number":"+31 20 663 4236","rating":4.2},{"id":1484,"name":"Coffeeshop Checkpoint","url_name":"\/nl\/in\/rotterdam\/coffeeshop-checkpoint","lat":51.905823,"lng":4.444837,"street":"Hudsonplein","number":"4-BN","zipcode":"3025 CA","city":"Rotterdam","phone_number":"+31 6 15610934","rating":4.2},{"id":1496,"name":"Coffeeshop Massawa","url_name":"\/nl\/in\/amsterdam\/coffeeshop-massawa","lat":52.367477,"lng":4.861993,"street":"Chass\u00e9straat","number":"4","zipcode":"1057 JD","city":"Amsterdam","phone_number":"+31 20 689 4377","rating":4.2},{"id":1501,"name":"Coffeeshop Nachtegaal","url_name":"\/nl\/in\/amsterdam\/coffeeshop-nachtegaal","lat":52.354031,"lng":4.91929,"street":"Krugerplein","number":"22","zipcode":"1091 KZ","city":"Amsterdam","phone_number":"+31 20 663 5599","rating":3.9},{"id":1517,"name":"Sky Coffeeshop","url_name":"\/nl\/in\/breda\/sky-coffeeshop-1","lat":51.584419,"lng":4.760052,"street":"Haagweg","number":"56","zipcode":"4814 GE","city":"Breda","phone_number":"+31 76 889 6565","rating":3.6},{"id":1519,"name":"Coffeeshop De Groene Ster","url_name":"\/nl\/in\/winschoten\/coffeeshop-de-groene-ster","lat":53.142342,"lng":7.03431,"street":"Bosstraat","number":"58","zipcode":"9671 GH","city":"Winschoten","phone_number":"","rating":3},{"id":1527,"name":"Coffeeshop Seventh Planet","url_name":"\/nl\/in\/den-haag\/coffeeshop-seventh-planet","lat":52.070499,"lng":4.282162,"street":"Loosduinseweg","number":"741","zipcode":"2571 AM","city":"Den Haag","phone_number":"+31 70 364 7224","rating":4.2},{"id":1915,"name":"The Cat","url_name":"\/nl\/in\/breda\/the-cat","lat":51.587006,"lng":4.805232,"street":"Marterring","number":"1","zipcode":"4817 GV","city":"Breda","phone_number":"+31 76 514 7464","rating":4.3},{"id":2006,"name":"Coffeeshop Pasop","url_name":"\/nl\/in\/schiedam\/coffeeshop-pasop","lat":51.908699,"lng":4.406402,"street":"Hoofdstraat","number":"311","zipcode":"3114 AA","city":"Schiedam","phone_number":"+31 10 426 6684","rating":4.5},{"id":2008,"name":"High Tea Coffeeshop","url_name":"\/nl\/in\/rotterdam\/high-tea-coffeeshop","lat":51.933075,"lng":4.472927,"street":"Noordsingel","number":"201","zipcode":"3035 ER","city":"Rotterdam","phone_number":"+31 10 466 5249","rating":4},{"id":2056,"name":"Expresco & Zo B.V.","url_name":"\/nl\/in\/s-hertogenbosch\/expresco-zo-bv","lat":51.698067,"lng":5.292511,"street":"Oude Engelenseweg","number":"22-F","zipcode":"5223 KC","city":"'s-Hertogenbosch","phone_number":"+31 73 622 0548","rating":3.9},{"id":2079,"name":"Ketama","url_name":"\/nl\/in\/nijmegen\/ketama","lat":51.837978,"lng":5.857779,"street":"De Ruyterstraat","number":"19","zipcode":"6512 GA","city":"Nijmegen","phone_number":"+31 24 360 1902","rating":4.3},{"id":2081,"name":"Side-Walk","url_name":"\/nl\/in\/wageningen\/side-walk","lat":51.965336,"lng":5.663158,"street":"Kapelstraat","number":"4 A","zipcode":"6701 DD","city":"Wageningen","phone_number":"","rating":4.1},{"id":2089,"name":"Sjop '86 B.V.","url_name":"\/nl\/in\/wageningen\/sjop-86-bv","lat":51.965481,"lng":5.661747,"street":"Rouwenhofstraat","number":"1-A","zipcode":"6701 BA","city":"Wageningen","phone_number":"+31 317 414 564","rating":4.6},{"id":2189,"name":"Coffeeshop Casa","url_name":"\/nl\/in\/zoetermeer\/coffeeshop-casa","lat":52.063457,"lng":4.469243,"street":"Amerikaweg","number":"145","zipcode":"2717 AV","city":"Zoetermeer","phone_number":"","rating":3.8},{"id":2190,"name":"Coffeeshop Tulip","url_name":"\/nl\/in\/den-haag\/coffeeshop-tulip","lat":52.061668,"lng":4.330738,"street":"Wenckebachstraat","number":"78","zipcode":"2522 CN","city":"Den Haag","phone_number":"+31 70 217 7029","rating":4.1},{"id":2191,"name":"Coffeeshop The Hit 21+","url_name":"\/nl\/in\/den-haag\/coffeeshop-the-hit-21","lat":52.076378,"lng":4.275248,"street":"Valkenboslaan","number":"45 \/A","zipcode":"2563 CE","city":"Den Haag","phone_number":"+31 70 752 2680","rating":4.4},{"id":2192,"name":"Happy Smile","url_name":"\/nl\/in\/den-haag\/happy-smile","lat":52.062469,"lng":4.317306,"street":"Verheeskade","number":"30","zipcode":"2521 BN","city":"Den Haag","phone_number":"+31 70 389 2973","rating":4.5},{"id":2194,"name":"Coffeeshop The Point","url_name":"\/nl\/in\/den-haag\/coffeeshop-the-point","lat":52.077873,"lng":4.290105,"street":"Marnixstraat","number":"59","zipcode":"2518 PW","city":"Den Haag","phone_number":"+31 70 365 2460","rating":4.4},{"id":2196,"name":"Coffeeshop Doctor Green","url_name":"\/nl\/in\/den-haag\/coffeeshop-doctor-green","lat":52.080009,"lng":4.316941,"street":"Herenstraat","number":"7","zipcode":"2511 CZ","city":"Den Haag","phone_number":"+31 70 214 3453","rating":4.7},{"id":2199,"name":"Coffeeshop Space Ball","url_name":"\/nl\/in\/den-haag\/coffeeshop-space-ball","lat":52.074993,"lng":4.314012,"street":"Wagenstraat","number":"115-A","zipcode":"2512 AS","city":"Den Haag","phone_number":"+31 70 346 4142","rating":3.9},{"id":2200,"name":"Coffeeshop Florence","url_name":"\/nl\/in\/den-haag\/coffeeshop-florence","lat":52.077316,"lng":4.278786,"street":"Beeklaan","number":"343","zipcode":"2561 VS","city":"Den Haag","phone_number":"+31 70 363 7677","rating":4.1},{"id":2201,"name":"Coffeeshop Demo","url_name":"\/nl\/in\/den-haag\/coffeeshop-demo","lat":52.080231,"lng":4.317137,"street":"Herenstraat","number":"8C","zipcode":"2511 EA","city":"Den Haag","phone_number":"","rating":4},{"id":2204,"name":"Coffeeshop Simpel Minds","url_name":"\/nl\/in\/den-haag\/coffeeshop-simpel-minds","lat":52.06889,"lng":4.285,"street":"De la Reyweg","number":"101","zipcode":"2571 EC","city":"Den Haag","phone_number":"+31 70 345 6445","rating":4.2},{"id":2209,"name":"Coffeeshop Groenewoud Leiden","url_name":"\/nl\/in\/leiden\/coffeeshop-groenewoud-leiden","lat":52.161129,"lng":4.499858,"street":"Havenplein","number":"1b","zipcode":"2312 GZ","city":"Leiden","phone_number":"+31 71 999 9999","rating":4.7},{"id":2212,"name":"Gallery Colorado","url_name":"\/nl\/in\/utrecht\/gallery-colorado","lat":52.106537,"lng":5.082648,"street":"Vlampijpstraat","number":"52","zipcode":"3534 AR","city":"Utrecht","phone_number":"+31 6 18199707","rating":4.5},{"id":2219,"name":"Coffeeshop de Steeg","url_name":"\/nl\/in\/woerden\/coffeeshop-de-steeg","lat":52.086704,"lng":4.861484,"street":"Rietveld","number":"1","zipcode":"3443 XA","city":"Woerden","phone_number":"+31 348 430 066","rating":4.7},{"id":2225,"name":"VIP Shop","url_name":"\/nl\/in\/utrecht\/vip-shop","lat":52.097313,"lng":5.105049,"street":"1e Daalsedijk","number":"294","zipcode":"3513 TL","city":"Utrecht","phone_number":"","rating":4.5},{"id":2323,"name":"Leidseplein","url_name":"\/nl\/in\/leiden\/leidseplein","lat":52.158607,"lng":4.487951,"street":"Pieterskerkgracht","number":"28","zipcode":"2311 SZ","city":"Leiden","phone_number":"","rating":4.4},{"id":2335,"name":"Paradise","url_name":"\/nl\/in\/leiden\/paradise","lat":52.163128,"lng":4.485805,"street":"Nieuwe Beestenmarkt","number":"6","zipcode":"2312 CH","city":"Leiden","phone_number":"+31 71 512 7041","rating":3.2},{"id":2337,"name":"Double AA","url_name":"\/nl\/in\/leiden\/double-aa","lat":52.163174,"lng":4.486334,"street":"Nieuwe Beestenmarkt","number":"5","zipcode":"2312 CG","city":"Leiden","phone_number":"+31 6 25427686","rating":4.3},{"id":2339,"name":"Le Palais","url_name":"\/nl\/in\/leiden\/le-palais","lat":52.161869,"lng":4.483985,"street":"Morsstraat","number":"14","zipcode":"2312 BM","city":"Leiden","phone_number":"+31 71 514 6675","rating":4.3},{"id":2341,"name":"De Eerste Kamer","url_name":"\/nl\/in\/leiden\/de-eerste-kamer","lat":52.163109,"lng":4.48441,"street":"Steenstraat","number":"15","zipcode":"2312 BS","city":"Leiden","phone_number":"+31 71 514 1751","rating":4.1},{"id":2364,"name":"Coffeeshop Risky Business","url_name":"\/nl\/in\/amsterdam\/coffeeshop-risky-business","lat":52.380989,"lng":4.855423,"street":"Bos en Lommerweg","number":"163-A","zipcode":"1055 DS","city":"Amsterdam","phone_number":"","rating":3.9},{"id":2368,"name":"Coffee Shop Join Us","url_name":"\/nl\/in\/haarlem\/coffee-shop-join-us","lat":52.375259,"lng":4.643798,"street":"Schalkwijkerstraat","number":"23zw","zipcode":"2033 JB","city":"Haarlem","phone_number":"","rating":4.5},{"id":2371,"name":"Coffeeshop Best Friends - Oud-Zuid","url_name":"\/nl\/in\/amsterdam\/coffeeshop-best-friends-oud-zuid","lat":52.353947,"lng":4.855917,"street":"Amstelveenseweg","number":"61","zipcode":"1075 VV","city":"Amsterdam","phone_number":"","rating":4.2},{"id":2372,"name":"Coffeeshop The Lounge","url_name":"\/nl\/in\/haarlem\/coffeeshop-the-lounge","lat":52.377785,"lng":4.630707,"street":"Doelstraat","number":"29","zipcode":"2011 XB","city":"Haarlem","phone_number":"+31 23 576 5895","rating":4.6},{"id":2373,"name":"Coffee Shop High Times","url_name":"\/nl\/in\/haarlem\/coffee-shop-high-times","lat":52.379894,"lng":4.637738,"street":"Lange Veerstraat","number":"47","zipcode":"2011 DA","city":"Haarlem","phone_number":"+31 6 43070879","rating":4.6},{"id":2376,"name":"Coffeeshop Chapiteau","url_name":"\/nl\/in\/amsterdam\/coffeeshop-chapiteau","lat":52.382374,"lng":4.873068,"street":"Van Boetzelaerstraat","number":"31","zipcode":"1051 CT","city":"Amsterdam","phone_number":"+31 20 682 2548","rating":4.7},{"id":2377,"name":"Coffeeshop Trefpunt","url_name":"\/nl\/in\/amsterdam\/coffeeshop-trefpunt","lat":52.366116,"lng":4.929865,"street":"Zeeburgerdijk","number":"33","zipcode":"1093 SL","city":"Amsterdam","phone_number":"+31 20 663 9327","rating":4.3},{"id":2379,"name":"Chillie Kiki BV","url_name":"\/nl\/in\/almere\/chillie-kiki-bv","lat":52.336906,"lng":5.221274,"street":"Schoolstraat","number":"260","zipcode":"1354 HX","city":"Almere","phone_number":"+31 36 531 1914","rating":3.9},{"id":2475,"name":"Coffeeshop Taffne","url_name":"\/nl\/in\/beverwijk\/coffeeshop-taffne","lat":52.482811,"lng":4.655623,"street":"Markt","number":"59","zipcode":"1941 BM","city":"Beverwijk","phone_number":"+31 251 225 625","rating":4.7},{"id":2476,"name":"Coffeeshop Scolo","url_name":"\/nl\/in\/ijmuiden\/coffeeshop-scolo","lat":52.459034,"lng":4.583393,"street":"Loggerstraat","number":"13","zipcode":"1976 CX","city":"IJmuiden","phone_number":"+31 255 745 036","rating":4.6},{"id":2477,"name":"Coffeeshop The Dream","url_name":"\/nl\/in\/amsterdam\/coffeeshop-the-dream","lat":52.365952,"lng":4.859482,"street":"Witte de Withstraat","number":"30-A","zipcode":"1057 XZ","city":"Amsterdam","phone_number":"+31 20 685 3847","rating":4.3},{"id":2480,"name":"Joe Cool","url_name":"\/nl\/in\/ijmuiden\/joe-cool","lat":52.463093,"lng":4.589946,"street":"Kanaalstraat","number":"25","zipcode":"1975 BA","city":"IJmuiden","phone_number":"+31 6 82155927","rating":4.6},{"id":2481,"name":"Takeaway Coffeeshop","url_name":"\/nl\/in\/haarlem\/takeaway-coffeeshop","lat":52.383793,"lng":4.633369,"street":"Nassaulaan","number":"54","zipcode":"2011 PE","city":"Haarlem","phone_number":"+31 23 785 1549","rating":4.2},{"id":2483,"name":"The Snoop","url_name":"\/nl\/in\/haarlem\/the-snoop","lat":52.407124,"lng":4.649843,"street":"Rijksstraatweg","number":"198","zipcode":"2022 DH","city":"Haarlem","phone_number":"+31 23 202 4252","rating":3.7},{"id":2485,"name":"Coffeeshop Reefer","url_name":"\/nl\/in\/amsterdam\/coffeeshop-reefer","lat":52.369812,"lng":4.900983,"street":"Sint Antoniesbreestraat","number":"77","zipcode":"1011 HB","city":"Amsterdam","phone_number":"+31 20 623 3615","rating":4.4},{"id":2486,"name":"Coffeeshop The Saint","url_name":"\/nl\/in\/amsterdam\/coffeeshop-the-saint","lat":52.366852,"lng":4.89495,"street":"Regulierssteeg","number":"2","zipcode":"1017 AA","city":"Amsterdam","phone_number":"","rating":4.2},{"id":2487,"name":"Coffeeshop Free I","url_name":"\/nl\/in\/amsterdam\/coffeeshop-free-i","lat":52.365974,"lng":4.89345,"street":"Reguliersdwarsstraat","number":"70","zipcode":"1017 BN","city":"Amsterdam","phone_number":"","rating":4.6},{"id":3121,"name":"Coffeeshop Quiam","url_name":"\/nl\/in\/eygelshoven\/coffeeshop-quiam","lat":50.892906,"lng":6.063187,"street":"Veldhofstraat","number":"79","zipcode":"6471 CE","city":"Eygelshoven","phone_number":"+31 45 535 4007","rating":4.1},{"id":3214,"name":"Smartshop and Growshop Jamaica","url_name":"\/nl\/in\/winterswijk\/smartshop-and-growshop-jamaica","lat":51.970547,"lng":6.717475,"street":"Tuinstraat","number":"16","zipcode":"7101 GL","city":"Winterswijk","phone_number":"+31 543 537 089","rating":4.8},{"id":3217,"name":"Coffeeshop Galaxy","url_name":"\/nl\/in\/den-haag\/coffeeshop-galaxy","lat":52.074409,"lng":4.278272,"street":"Weimarstraat","number":"245","zipcode":"2562 HH","city":"Den Haag","phone_number":"+31 6 20543216","rating":4.5},{"id":3218,"name":"Magic Coffeeshop Highlife Cup winner","url_name":"\/nl\/in\/den-haag\/magic-coffeeshop-highlife-cup-winner","lat":52.077553,"lng":4.310386,"street":"Gortstraat","number":"6","zipcode":"2511 AP","city":"Den Haag","phone_number":"","rating":4.4},{"id":3248,"name":"Coffeeshop Flash Back","url_name":"\/nl\/in\/amsterdam\/coffeeshop-flash-back","lat":52.368752,"lng":4.852964,"street":"Hudsonstraat","number":"138-HS","zipcode":"1057 SR","city":"Amsterdam","phone_number":"+31 20 489 6115","rating":3.2},{"id":3478,"name":"Coffeeshop The Freak Brothers","url_name":"\/nl\/in\/den-haag\/coffeeshop-the-freak-brothers","lat":52.075596,"lng":4.30205,"street":"Westeinde","number":"86","zipcode":"2512 HE","city":"Den Haag","phone_number":"","rating":4.3},{"id":3490,"name":"Coffeeshop Betty Boop AMS","url_name":"\/nl\/in\/amsterdam\/coffeeshop-betty-boop-ams","lat":52.366554,"lng":4.890239,"street":"Reguliersdwarsstraat","number":"29","zipcode":"1017 BJ","city":"Amsterdam","phone_number":"","rating":4.6},{"id":3504,"name":"Coffeeshop The Jolly Joker","url_name":"\/nl\/in\/amsterdam\/coffeeshop-the-jolly-joker","lat":52.373047,"lng":4.900156,"street":"Nieuwmarkt","number":"4-A","zipcode":"1012 BC","city":"Amsterdam","phone_number":"+31 20 223 5565","rating":4.3},{"id":3505,"name":"Barraka Coffeeshop","url_name":"\/nl\/in\/amsterdam\/barraka-coffeeshop","lat":52.374233,"lng":4.89262,"street":"Gravenstraat","number":"9","zipcode":"1012 NL","city":"Amsterdam","phone_number":"+31 20 626 9766","rating":3.8},{"id":3506,"name":"Coffeeshop Warda II","url_name":"\/nl\/in\/amsterdam\/coffeeshop-warda-ii","lat":52.363628,"lng":4.936655,"street":"Javastraat","number":"104","zipcode":"1094 HN","city":"Amsterdam","phone_number":"","rating":4.2},{"id":3661,"name":"Spiegelbeeld Vlaardingen","url_name":"\/nl\/in\/vlaardingen\/spiegelbeeld-vlaardingen","lat":51.912018,"lng":4.343999,"street":"Hoogstraat","number":"62 a","zipcode":"3131 BN","city":"Vlaardingen","phone_number":"+31 10 435 4484","rating":4.1},{"id":3662,"name":"De Stichting","url_name":"\/nl\/in\/rotterdam\/de-stichting","lat":51.931309,"lng":4.46072,"street":"Stadhoudersweg","number":"85A","zipcode":"3039 EB","city":"Rotterdam","phone_number":"+31 10 291 7305","rating":4.4},{"id":3663,"name":"Koffieshop 7","url_name":"\/nl\/in\/rotterdam\/koffieshop-7","lat":51.915997,"lng":4.45821,"street":"Joost van Geelstraat","number":"69-A","zipcode":"3021 VL","city":"Rotterdam","phone_number":"+31 10 477 2370","rating":4.3},{"id":3664,"name":"Foundation Medical Marijuana Patient Interests","url_name":"\/nl\/in\/rotterdam\/foundation-medical-marijuana-patient-interests","lat":51.931309,"lng":4.460719,"street":"Stadhoudersweg","number":"85-A","zipcode":"3039 EB","city":"Rotterdam","phone_number":"+31 10 291 7305","rating":4.5},{"id":3666,"name":"Joy Coffeeshop","url_name":"\/nl\/in\/dordrecht\/joy-coffeeshop","lat":51.81665,"lng":4.66815,"street":"Wijnstraat","number":"154","zipcode":"3311 BZ","city":"Dordrecht","phone_number":"+31 78 635 0131","rating":3.5},{"id":3701,"name":"Coffeeshop London","url_name":"\/nl\/in\/den-haag\/coffeeshop-london","lat":52.078838,"lng":4.304142,"street":"Torenstraat","number":"81","zipcode":"2513 BP","city":"Den Haag","phone_number":"","rating":3.8},{"id":3710,"name":"Roots Coffeeshop & Restaurant","url_name":"\/nl\/in\/amersfoort\/roots-coffeeshop-restaurant","lat":52.153286,"lng":5.382835,"street":"Snouckaertlaan","number":"30","zipcode":"3811 MB","city":"Amersfoort","phone_number":"","rating":4.1},{"id":3717,"name":"Coffeeshop Omigo","url_name":"\/nl\/in\/arnhem\/coffeeshop-omigo","lat":51.985977,"lng":5.915328,"street":"Sonsbeeksingel","number":"115","zipcode":"6822 BJ","city":"Arnhem","phone_number":"","rating":4.4},{"id":3727,"name":"Juicebar Snipe","url_name":"\/nl\/in\/amsterdam\/juicebar-snipe","lat":52.377079,"lng":4.816242,"street":"Lodewijk van Deysselstraat","number":"37","zipcode":"1064 HL","city":"Amsterdam","phone_number":"+31 20 614 7260","rating":4.1},{"id":3728,"name":"Top Weazle","url_name":"\/nl\/in\/amsterdam\/top-weazle","lat":52.345993,"lng":4.906527,"street":"Vechtstraat","number":"63 H","zipcode":"1079 JA","city":"Amsterdam","phone_number":"+31 20 661 1514","rating":4.4},{"id":3729,"name":"Coffeeshop Happy Days","url_name":"\/nl\/in\/amsterdam\/coffeeshop-happy-days-1","lat":52.346588,"lng":4.911265,"street":"Amsteldijk","number":"139","zipcode":"1079 LE","city":"Amsterdam","phone_number":"+31 20 661 3986","rating":4.5},{"id":3730,"name":"Coffeeshop Bronx","url_name":"\/nl\/in\/amsterdam\/coffeeshop-bronx","lat":52.379124,"lng":4.879364,"street":"Marnixstraat","number":"92","zipcode":"1015 VZ","city":"Amsterdam","phone_number":"+31 20 779 8939","rating":4.4},{"id":3731,"name":"Coffeeshop Galaxy","url_name":"\/nl\/in\/hilversum\/coffeeshop-galaxy-1","lat":52.22839,"lng":5.176261,"street":"Naarderstraat","number":"47","zipcode":"1211 AJ","city":"Hilversum","phone_number":"+31 6 27062514","rating":4.2},{"id":3751,"name":"Willie Wortel's Sinsemilla Cannabis Shop","url_name":"\/nl\/in\/haarlem\/willie-wortels-sinsemilla-cannabis-shop","lat":52.375137,"lng":4.630417,"street":"Houtplein","number":"16-A","zipcode":"2012 DH","city":"Haarlem","phone_number":"+31 23 531 3718","rating":4.3},{"id":3752,"name":"Boerejongens Sloterdijk","url_name":"\/nl\/in\/amsterdam\/boerejongens-sloterdijk-2","lat":52.391216,"lng":4.829674,"street":"Humberweg","number":"2","zipcode":"1043 AN","city":"Amsterdam","phone_number":"+31 6 55955400","rating":4.6},{"id":3753,"name":"Shop 96","url_name":"\/nl\/in\/amsterdam\/shop-96","lat":52.363564,"lng":4.863274,"street":"Jan Pieter Heijestraat","number":"96","zipcode":"1053 GT","city":"Amsterdam","phone_number":"+31 20 618 6084","rating":4.5},{"id":3754,"name":"Amsterdam Genetics","url_name":"\/nl\/in\/amsterdam\/amsterdam-genetics","lat":52.391121,"lng":4.83038,"street":"Humberweg","number":"6","zipcode":"1043 AN","city":"Amsterdam","phone_number":"+31 20 412 2392","rating":4.5},{"id":3755,"name":"The Wow Shop (C. Cohen)","url_name":"\/nl\/in\/amsterdam\/the-wow-shop-c-cohen","lat":52.391792,"lng":4.877748,"street":"Spaarndammerdijk","number":"9","zipcode":"1013 ZM","city":"Amsterdam","phone_number":"","rating":4.5},{"id":3873,"name":"Dutch Gold","url_name":"\/nl\/in\/alphen-aan-den-rijn\/dutch-gold","lat":52.133022,"lng":4.663898,"street":"Hooftstraat","number":"96","zipcode":"2406 GM","city":"Alphen aan den Rijn","phone_number":"","rating":4.1},{"id":3877,"name":"Coffeeshop De Boot","url_name":"\/nl\/in\/utrecht\/coffeeshop-de-boot","lat":52.096954,"lng":5.126756,"street":"Wittevrouwensingel","number":"206","zipcode":"3572 CE","city":"Utrecht","phone_number":"","rating":4.6},{"id":3882,"name":"Koffiesjop Hacas","url_name":"\/nl\/in\/soest\/koffiesjop-hacas","lat":52.186684,"lng":5.281524,"street":"Koninginnelaan","number":"25B","zipcode":"3762 DA","city":"Soest","phone_number":"+31 35 602 9779","rating":4.1},{"id":3889,"name":"Happy Days","url_name":"\/nl\/in\/lisse\/happy-days","lat":52.261765,"lng":4.555824,"street":"Heereweg","number":"153","zipcode":"2161 BC","city":"Lisse","phone_number":"+31 252 429 594","rating":4.2},{"id":3890,"name":"Stone's Coffeeshop","url_name":"\/nl\/in\/amsterdam\/stones-coffeeshop","lat":52.353687,"lng":4.887182,"street":"Ruysdaelkade","number":"145","zipcode":"1072 AR","city":"Amsterdam","phone_number":"","rating":4.6},{"id":3903,"name":"Kadinsky Coffeeshop","url_name":"\/nl\/in\/amsterdam\/kadinsky-coffeeshop-1","lat":52.369343,"lng":4.892998,"street":"Langebrugsteeg","number":"7A","zipcode":"1012 GB","city":"Amsterdam","phone_number":"+31 20 420 2132","rating":4.1},{"id":3904,"name":"Rick's Coffeeshop","url_name":"\/nl\/in\/amsterdam\/ricks-coffeeshop","lat":52.371742,"lng":4.895289,"street":"Oudezijds Voorburgwal","number":"252","zipcode":"1012 GK","city":"Amsterdam","phone_number":"","rating":3.4},{"id":4094,"name":"Cannashop","url_name":"\/nl\/in\/steenwijk\/cannashop","lat":52.786743,"lng":6.113459,"street":"Korte Woldpromenade","number":"8","zipcode":"8331 JK","city":"Steenwijk","phone_number":"+31 521 522 823","rating":4.2},{"id":4177,"name":"Pit Stop","url_name":"\/nl\/in\/alphen-aan-den-rijn\/pit-stop","lat":52.133087,"lng":4.663909,"street":"Hooftstraat","number":"102","zipcode":"2406 GM","city":"Alphen aan den Rijn","phone_number":"+31 172 491 997","rating":4.1},{"id":4281,"name":"Coffeeshop bamboo","url_name":"\/nl\/in\/schiedam\/coffeeshop-bamboo","lat":51.920753,"lng":4.39634,"street":"Parkweg","number":"379","zipcode":"3119 CK","city":"Schiedam","phone_number":"+31 10 503 6507","rating":4.2},{"id":4300,"name":"Coffeeshop Family First","url_name":"\/nl\/in\/amsterdam\/coffeeshop-family-first","lat":52.36692,"lng":4.895393,"street":"Amstel","number":"36","zipcode":"1017 AB","city":"Amsterdam","phone_number":"","rating":4.6},{"id":4397,"name":"Coffeeshop Amersfoortseplein","url_name":"\/nl\/in\/amersfoort\/coffeeshop-amersfoortseplein","lat":52.16592,"lng":5.353237,"street":"Xenonweg","number":"13m","zipcode":"3812 SZ","city":"Amersfoort","phone_number":"","rating":4.7},{"id":4407,"name":"Bullwackie coffeeshop","url_name":"\/nl\/in\/amsterdam\/bullwackie-coffeeshop","lat":52.35207,"lng":4.847435,"street":"Woestduinstraat","number":"78","zipcode":"1058 TJ","city":"Amsterdam","phone_number":"+31 20 617 9395","rating":4},{"id":4539,"name":"Coffee Shop Sensemillia","url_name":"\/nl\/in\/amsterdam\/coffee-shop-sensemillia","lat":52.375114,"lng":4.871307,"street":"Gillis van Ledenberchstraat","number":"135","zipcode":"1052 VE","city":"Amsterdam","phone_number":"+31 20 686 5144","rating":4.4},{"id":4593,"name":"Smoke Kaffee Chip 'N Dale","url_name":"\/nl\/in\/s-hertogenbosch\/smoke-kaffee-chip-n-dale","lat":51.688438,"lng":5.31157,"street":"Hinthamerstraat","number":"159","zipcode":"5211 MK","city":"'s-Hertogenbosch","phone_number":"+31 73 822 7365","rating":4.5},{"id":4602,"name":"Out Of Time's Puck","url_name":"\/nl\/in\/rotterdam\/out-of-times-puck","lat":51.890198,"lng":4.506371,"street":"Sandelingplein","number":"2","zipcode":"3073 AL","city":"Rotterdam","phone_number":"+31 10 484 0636","rating":4.5},{"id":4979,"name":"Coffeeshop City Hall","url_name":"\/nl\/in\/amsterdam\/coffeeshop-city-hall","lat":52.371403,"lng":4.895931,"street":"Oudezijds Voorburgwal","number":"189","zipcode":"1012 EE","city":"Amsterdam","phone_number":"+31 20 626 3985","rating":3.3},{"id":5086,"name":"Coffeeshop Tsjakka","url_name":"\/nl\/in\/den-helder\/coffeeshop-tsjakka","lat":52.961124,"lng":4.761924,"street":"Koningstraat","number":"44-46","zipcode":"1781 KH","city":"Den Helder","phone_number":"+31 6 47314036","rating":4.6},{"id":5377,"name":"Coffeeshop Catch 33","url_name":"\/nl\/in\/amsterdam\/coffeeshop-catch-33","lat":52.382656,"lng":4.879812,"street":"Nassaukade","number":"33-HS","zipcode":"1052 CK","city":"Amsterdam","phone_number":"+31 20 486 2444","rating":4.3},{"id":5804,"name":"Goa Coffeeshop","url_name":"\/nl\/in\/amsterdam\/goa-coffeeshop","lat":52.371243,"lng":4.898573,"street":"Kloveniersburgwal","number":"42","zipcode":"1012 CW","city":"Amsterdam","phone_number":"","rating":4.3},{"id":6121,"name":"Energy Coffeeshop","url_name":"\/nl\/in\/amsterdam\/energy-coffeeshop","lat":52.372601,"lng":4.896212,"street":"Oudezijds Voorburgwal","number":"220","zipcode":"1012 GJ","city":"Amsterdam","phone_number":"+31 20 620 3822","rating":4.4},{"id":6122,"name":"Greenhouse Lounge","url_name":"\/nl\/in\/amsterdam\/greenhouse-lounge","lat":52.380356,"lng":4.892145,"street":"Haarlemmerstraat","number":"64","zipcode":"1013 ET","city":"Amsterdam","phone_number":"","rating":4.7},{"id":6124,"name":"Coffeeshop Mr.K","url_name":"\/nl\/in\/amsterdam\/coffeeshop-mrk","lat":52.371864,"lng":4.878991,"street":"Tweede Laurierdwarsstraat","number":"44","zipcode":"1016 RB","city":"Amsterdam","phone_number":"+31 20 370 4862","rating":4.2},{"id":6195,"name":"Coffeeshop Crash Light","url_name":"\/nl\/in\/amsterdam\/coffeeshop-crash-light","lat":52.354801,"lng":4.92233,"street":"Pretoriusstraat","number":"67","zipcode":"1092 GB","city":"Amsterdam","phone_number":"","rating":4},{"id":6196,"name":"Coffeeshop Voyagers","url_name":"\/nl\/in\/amsterdam\/coffeeshop-voyagers","lat":52.376377,"lng":4.902004,"street":"Geldersekade","number":"2HS","zipcode":"1012 BH","city":"Amsterdam","phone_number":"","rating":4.2},{"id":6346,"name":"Coffeeshop Nice Place","url_name":"\/nl\/in\/amsterdam\/coffeeshop-nice-place","lat":52.353355,"lng":4.899694,"street":"Van Ostadestraat","number":"290","zipcode":"1073 TW","city":"Amsterdam","phone_number":"","rating":4.5},{"id":6477,"name":"Coffeeshop De Gaper","url_name":"\/nl\/in\/schiedam\/coffeeshop-de-gaper","lat":51.917881,"lng":4.394024,"street":"Vlaardingerstraat","number":"5b","zipcode":"3111 BP","city":"Schiedam","phone_number":"","rating":4.5},{"id":6570,"name":"Achterhuis Coffeeshop","url_name":"\/nl\/in\/den-haag\/achterhuis-coffeeshop","lat":52.073246,"lng":4.27693,"street":"Weimarstraat","number":"328","zipcode":"2562 HT","city":"Den Haag","phone_number":"","rating":4.5},{"id":6622,"name":"Coffeeshop The Box Green Harvest ","url_name":"\/nl\/in\/den-haag\/coffeeshop-the-box-green-harvest-scheveningen","lat":52.107986,"lng":4.278143,"street":"Havenkade","number":"16","zipcode":"2586 TS","city":"Den Haag","phone_number":"","rating":4.9},{"id":6667,"name":"Coffeeshop Highlander","url_name":"\/nl\/in\/eindhoven\/coffeeshop-highlander","lat":51.439106,"lng":5.498406,"street":"Bosboomstraat","number":"77","zipcode":"5613 JG","city":"Eindhoven","phone_number":"+31 40 244 6712","rating":4},{"id":6707,"name":"Coffeeshop Sympathy","url_name":"\/nl\/in\/den-haag\/coffeeshop-sympathy","lat":52.080528,"lng":4.295916,"street":"Witte de Withstraat","number":"14","zipcode":"2518 CT","city":"Den Haag","phone_number":"","rating":4},{"id":6936,"name":"Coffeeshop Bilbao","url_name":"\/nl\/in\/rotterdam\/coffeeshop-bilbao","lat":51.889874,"lng":4.478659,"street":"Carnisselaan","number":"20A","zipcode":"3083 HJ","city":"Rotterdam","phone_number":"","rating":4.4},{"id":6988,"name":"Coffeeshop Genius","url_name":"\/nl\/in\/dordrecht\/coffeeshop-genius","lat":51.813744,"lng":4.659895,"street":"Voorstraat","number":"475","zipcode":"3311 CV","city":"Dordrecht","phone_number":"+31 78 614 8762","rating":4.2},{"id":7075,"name":"The cannabis cafe","url_name":"\/nl\/in\/haarlem\/the-cannabis-cafe","lat":52.379925,"lng":4.631166,"street":"Barrevoetestraat","number":"23","zipcode":"2011 WN","city":"Haarlem","phone_number":"","rating":4.4},{"id":7172,"name":"The Bulldog Rockshop Coffeeshop","url_name":"\/nl\/in\/amsterdam\/the-bulldog-rockshop-coffeeshop","lat":52.379086,"lng":4.893846,"street":"Singel","number":"12","zipcode":"1013 GA","city":"Amsterdam","phone_number":"+31 20 627 8900","rating":4.5},{"id":7241,"name":"Coffeeshop Dizzy Duck Downtown","url_name":"\/nl\/in\/den-haag\/coffeeshop-dizzy-duck-downtown","lat":52.080048,"lng":4.318275,"street":"Fluwelen Burgwal","number":"1c","zipcode":"2511 CH","city":"Den Haag","phone_number":"","rating":4.6},{"id":7249,"name":"Green Place Coffeeshop Haarlemmerstraat","url_name":"\/nl\/in\/amsterdam\/green-place-coffeeshop-haarlemmerstraat","lat":52.379444,"lng":4.894034,"street":"Haarlemmerstraat","number":"6","zipcode":"1013 ER","city":"Amsterdam","phone_number":"","rating":4.1},{"id":7316,"name":"The Bulldog Ex-Police Station Coffeeshop","url_name":"\/nl\/in\/amsterdam\/the-bulldog-ex-police-station-coffeeshop","lat":52.36396,"lng":4.883357,"street":"Leidseplein","number":"17","zipcode":"1017 PS","city":"Amsterdam","phone_number":"+31 20 422 3444","rating":4.2},{"id":7334,"name":"Coffeeshop John & Co.","url_name":"\/nl\/in\/hellevoetsluis\/coffeeshop-john-co","lat":51.839085,"lng":4.170015,"street":"Stephensonweg","number":"1","zipcode":"3225 LW","city":"Hellevoetsluis","phone_number":"+31 6 39495444","rating":4.6},{"id":7383,"name":"Coffeeshopamsterdam Caf\u00e9","url_name":"\/nl\/in\/amsterdam\/coffeeshopamsterdam-caf","lat":52.379166,"lng":4.893925,"street":"Singel","number":"8","zipcode":"1013 GA","city":"Amsterdam","phone_number":"+31 20 778 4387","rating":4.6},{"id":7434,"name":"Greenhouse Coffeeshop","url_name":"\/nl\/in\/amsterdam\/greenhouse-coffeeshop","lat":52.380295,"lng":4.892181,"street":"Haarlemmerstraat","number":"64","zipcode":"1013 ET","city":"Amsterdam","phone_number":"+31 20 716 3834","rating":4.6},{"id":7453,"name":"Coffeeshop Oost","url_name":"\/nl\/in\/amsterdam\/coffeeshop-oost","lat":52.356457,"lng":4.916256,"street":"Derde Oosterparkstraat","number":"73H","zipcode":"1091 HS","city":"Amsterdam","phone_number":"","rating":4.9},{"id":7454,"name":"Smokery by The Plug Wormerveer Coffeeshop","url_name":"\/nl\/in\/wormerveer\/smokery-by-the-plug-wormerveer-coffeeshop","lat":52.493092,"lng":4.789417,"street":"Marktstraat","number":"33","zipcode":"1521 DW","city":"Wormerveer","phone_number":"+31 900 7665379","rating":4.3},{"id":7471,"name":"Coffeeshop Green Guys","url_name":"\/nl\/in\/zeist\/coffeeshop-green-guys","lat":52.091763,"lng":5.242902,"street":"Steynlaan","number":"90","zipcode":"3701 EJ","city":"Zeist","phone_number":"","rating":4.2},{"id":7498,"name":"Coffeeshop SuperFly","url_name":"\/nl\/in\/beverwijk\/coffeeshop-superfly","lat":52.480225,"lng":4.654572,"street":"Koningstraat","number":"8","zipcode":"1941 BD","city":"Beverwijk","phone_number":"+31 251 745 070","rating":4.4},{"id":7765,"name":"De Ambassade Zwijndrecht","url_name":"\/nl\/in\/zwijndrecht\/de-ambassade-zwijndrecht","lat":51.822548,"lng":4.649429,"street":"IJsselmeer","number":"27","zipcode":"3332 EX","city":"Zwijndrecht","phone_number":"+31 85 018 2076","rating":4.6},{"id":7790,"name":"The Bulldog Energy Coffeeshop","url_name":"\/nl\/in\/amsterdam\/the-bulldog-energy-coffeeshop","lat":52.372513,"lng":4.896262,"street":"Oudezijds Voorburgwal","number":"220","zipcode":"1012 GA","city":"Amsterdam","phone_number":"+31 20 638 2593","rating":4.1},{"id":7809,"name":"Coffeeshop Noord","url_name":"\/nl\/in\/amsterdam\/coffeeshop-noord","lat":52.383598,"lng":4.912528,"street":"Ooievaarsweg","number":"10","zipcode":"1021 GZ","city":"Amsterdam","phone_number":"+31 20 224 6201","rating":4.7},{"id":7943,"name":"Coffeeshop Hashtag","url_name":"\/nl\/in\/amsterdam\/coffeeshop-hashtag","lat":52.36393,"lng":4.896216,"street":"Reguliersgracht","number":"27","zipcode":"1017 LK","city":"Amsterdam","phone_number":"","rating":4.8},{"id":7952,"name":"Coffeeshop Sativa Amsterdam","url_name":"\/nl\/in\/amsterdam\/coffeeshop-sativa-amsterdam","lat":52.374619,"lng":4.890247,"street":"Spuistraat","number":"118","zipcode":"1012 VA","city":"Amsterdam","phone_number":"","rating":4.7},{"id":8006,"name":"Coffeeshop Happy Feelings","url_name":"\/nl\/in\/amsterdam\/coffeeshop-happy-feelings","lat":52.365273,"lng":4.885896,"street":"Kerkstraat","number":"51H","zipcode":"1017 GC","city":"Amsterdam","phone_number":"","rating":4.7},{"id":8116,"name":"Coffeeshop Magic Doetinchem","url_name":"\/nl\/in\/doetinchem\/coffeeshop-magic-doetinchem","lat":51.965752,"lng":6.294975,"street":"Veemarkt","number":"10","zipcode":"7001 EE","city":"Doetinchem","phone_number":"","rating":4.5},{"id":8118,"name":"Coffeeshop Ganja | Scheveningen","url_name":"\/nl\/in\/den-haag\/coffeeshop-ganja-scheveningen","lat":52.092979,"lng":4.267602,"street":"Westduinweg","number":"59","zipcode":"2583 EB","city":"Den Haag","phone_number":"","rating":4.9},{"id":8163,"name":"Coffeeshop Twins Weert","url_name":"\/nl\/in\/weert\/coffeeshop-twins-weert","lat":51.255047,"lng":5.706238,"street":"Beekstraat","number":"50","zipcode":"6001 GJ","city":"Weert","phone_number":"+31 495 745 642","rating":4.1},{"id":8607,"name":"Coffeeshop Marbella Special Farmers","url_name":"\/nl\/in\/den-haag\/coffeeshop-marbella-special-farmers","lat":52.074471,"lng":4.278888,"street":"Weimarstraat","number":"244","zipcode":"2562 HR","city":"Den Haag","phone_number":"","rating":4.7}]}